,city,city_date,city_id,cloudiness,country,humidity,lat,lng,max_temp,wind_speed
0,Jamestown,11-05-2017,5122534,90,US,100,42.1,-79.24,56.61,11.41
1,Bucerias,11-05-2017,4016734,20,MX,79,20.75,-105.33,86.0,10.29
2,Hilo,11-05-2017,5855927,90,US,69,19.73,-155.09,72.68,13.87
3,Bilibino,11-05-2017,2126682,92,RU,66,68.05,166.44,33.67,10.65
4,Bluff,11-05-2017,2206939,36,NZ,100,-46.6,168.33,51.22,22.84
5,Busselton,11-05-2017,2075265,0,AU,93,-33.65,115.33,65.71,22.28
6,Batemans Bay,11-05-2017,2176639,92,AU,96,-35.72,150.18,59.41,6.51
7,Barenburg,11-05-2017,2952767,0,DE,86,52.62,8.8,41.49,4.7
8,Amparihy,11-05-2017,1078317,75,MG,94,-25.02,46.97,68.0,13.87
9,Fortuna,11-05-2017,5563839,90,US,87,40.6,-124.16,51.15,5.82
10,Olinda,11-05-2017,3393536,40,BR,74,-8.01,-34.86,78.8,6.93
11,Carnarvon,11-05-2017,2074865,0,AU,88,-24.87,113.63,74.22,11.77
12,Varnek,11-05-2017,1487762,8,RU,81,69.71,60.05,34.35,21.72
13,Port Alfred,11-05-2017,964432,44,ZA,98,-33.59,26.89,63.51,16.58
14,Rikitea,11-05-2017,4030556,44,PF,100,-23.12,-134.97,74.67,12.55
15,Fare,11-05-2017,4034496,92,PF,100,-16.7,-151.02,77.82,4.72
16,Geraldton,11-05-2017,2070998,0,AU,19,-28.77,114.6,78.8,20.8
17,Tarecuato,11-05-2017,3982382,0,MX,35,19.85,-102.48,75.07,1.7
18,Hithadhoo,11-05-2017,1282256,76,MV,100,-0.6,73.08,76.74,12.44
19,Pangnirtung,11-05-2017,6096551,0,CA,100,66.15,-65.71,3.57,13.56
20,Busselton,11-05-2017,2075265,0,AU,93,-33.65,115.33,65.71,22.28
21,Taitung,11-05-2017,1668295,75,TW,83,22.76,121.14,71.6,5.82
22,Al Manaqil,11-05-2017,379149,0,SD,41,14.25,32.99,62.34,8.75
23,Saldanha,11-05-2017,3361934,0,ZA,77,-33.01,17.94,59.0,16.11
24,Victoria,11-05-2017,6174041,75,CA,41,48.43,-123.37,40.98,6.93
25,Geraldton,11-05-2017,2070998,0,AU,19,-28.77,114.6,78.8,20.8
26,Sharan,11-05-2017,495770,76,RU,100,54.82,54.0,24.81,7.63
27,Rikitea,11-05-2017,4030556,44,PF,100,-23.12,-134.97,74.67,12.55
28,Kenai,11-05-2017,5866063,90,US,100,60.55,-151.26,33.8,17.22
29,Toliara,11-05-2017,1055429,0,MG,71,-23.35,43.67,73.18,11.65
30,Pierre,11-05-2017,5767918,1,US,50,44.37,-100.35,33.8,6.93
31,Lebu,11-05-2017,3883457,44,CL,95,-37.62,-73.65,56.26,11.43
32,Atuona,11-05-2017,4020109,56,PF,100,-9.8,-139.03,80.29,13.0
33,Praia da Vitoria,11-05-2017,3372760,75,PT,88,38.73,-27.07,64.4,16.58
34,Rikitea,11-05-2017,4030556,44,PF,100,-23.12,-134.97,74.67,12.55
35,Inhambane,11-05-2017,1045114,0,MZ,100,-23.86,35.38,67.74,6.06
36,Mentor-on-the-Lake,11-05-2017,5162672,90,US,100,41.7,-81.36,62.33,21.05
37,Barra do Garcas,11-05-2017,3470709,64,BR,93,-15.89,-52.26,73.05,5.73
38,Horta (Angústias),11-05-2017,8013523,40,PT,82,38.53,-28.64,66.2,6.93
39,Kapaa,11-05-2017,5848280,40,US,65,22.08,-159.32,80.4,16.11
40,Avarua,11-05-2017,4035715,90,CK,83,-21.21,-159.78,77.0,13.87
41,Namibe,11-05-2017,3347019,20,AO,99,-15.2,12.15,74.85,5.61
42,Hranice,11-05-2017,3074893,20,CZ,66,49.55,17.73,50.0,17.22
43,Maldonado,11-05-2017,3441894,0,UY,63,-34.9,-54.95,64.4,6.93
44,Vaini,11-05-2017,4032243,75,TO,69,-21.2,-175.2,80.6,4.7
45,Salinopolis,11-05-2017,3389822,76,BR,95,-0.61,-47.36,81.87,15.12
46,Punta Arenas,11-05-2017,3874787,0,CL,58,-53.15,-70.92,55.4,11.41
47,Upernavik,11-05-2017,3418910,68,GL,100,72.79,-56.15,19.09,28.66
48,Mathura,11-05-2017,1263364,0,IN,81,27.5,77.68,61.26,2.71
49,Atuona,11-05-2017,4020109,56,PF,100,-9.8,-139.03,80.29,13.0
50,San Lorenzo,11-05-2017,3437056,20,PY,73,-25.33,-57.53,75.2,3.36
51,Qaanaaq,11-05-2017,3831208,8,GL,100,77.48,-69.36,-6.74,8.08
52,Qaanaaq,11-05-2017,3831208,8,GL,100,77.48,-69.36,-6.74,8.08
53,Barenburg,11-05-2017,2952767,0,DE,86,52.62,8.8,41.49,4.7
54,Sao Joao da Barra,11-05-2017,3448903,75,BR,73,-21.64,-41.05,77.0,13.87
55,Wajir,11-05-2017,178443,92,KE,98,1.75,40.06,70.21,3.49
56,Albany,11-05-2017,5106834,90,US,81,42.65,-73.76,53.26,14.99
57,Thompson,11-05-2017,6165406,90,CA,78,55.74,-97.86,17.6,10.29
58,Kapaa,11-05-2017,5848280,40,US,65,22.08,-159.32,80.4,16.11
59,Bagdarin,11-05-2017,2027244,0,RU,55,54.43,113.6,13.56,5.39
60,Sawtell,11-05-2017,2150163,100,AU,64,-30.38,153.1,73.4,21.92
61,Thompson,11-05-2017,6165406,90,CA,78,55.74,-97.86,17.6,10.29
62,Bathsheba,11-05-2017,3374083,40,BB,88,13.22,-59.52,80.6,14.99
63,Mathura,11-05-2017,1263364,0,IN,81,27.5,77.68,61.26,2.71
64,Upernavik,11-05-2017,3418910,68,GL,100,72.79,-56.15,19.09,28.66
65,Rikitea,11-05-2017,4030556,44,PF,100,-23.12,-134.97,74.67,12.55
66,Bluff,11-05-2017,2206939,36,NZ,100,-46.6,168.33,51.22,22.84
67,New Norfolk,11-05-2017,2155415,40,AU,46,-42.78,147.06,53.6,12.75
68,Balapur,11-05-2017,1445310,40,IN,93,17.31,78.48,66.2,3.36
69,Cape Town,11-05-2017,3369157,0,ZA,77,-33.93,18.42,60.8,28.86
70,Hermanus,11-05-2017,3366880,80,ZA,93,-34.42,19.23,54.6,4.16
71,Saint-Georges,11-05-2017,6138282,92,CA,80,46.62,-72.66,46.36,10.09
72,Nova Olimpia,11-05-2017,3456137,20,BR,81,-14.8,-57.29,82.14,2.93
73,Cape Town,11-05-2017,3369157,0,ZA,77,-33.93,18.42,60.8,28.86
74,Fortuna,11-05-2017,5563839,90,US,87,40.6,-124.16,51.15,5.82
75,Albany,11-05-2017,5106834,90,US,81,42.65,-73.76,53.26,14.99
76,New Norfolk,11-05-2017,2155415,40,AU,46,-42.78,147.06,53.6,12.75
77,Butaritari,11-05-2017,2110227,88,KI,100,3.07,172.79,82.59,14.12
78,Fuling,11-05-2017,1810979,44,CN,87,29.7,107.39,49.51,2.59
79,Saint-Philippe,11-05-2017,935215,0,RE,49,-21.36,55.77,68.0,8.05
80,Puerto Ayora,11-05-2017,3652764,75,EC,68,-0.74,-90.35,71.6,18.34
81,Longyearbyen,11-05-2017,2729907,75,SJ,74,78.22,15.64,28.4,8.05
82,Qinzhou,11-05-2017,1797551,68,CN,48,21.95,108.62,66.84,7.52
83,Busselton,11-05-2017,2075265,0,AU,93,-33.65,115.33,65.71,22.28
84,Cherskiy,11-05-2017,2126199,88,RU,76,68.75,161.3,33.72,10.09
85,Paamiut,11-05-2017,3421193,80,GL,100,61.99,-49.67,32.59,33.91
86,Ponta Delgada,11-05-2017,3372783,20,PT,72,37.73,-25.67,62.6,4.7
87,Nelson Bay,11-05-2017,2155562,20,AU,69,-32.72,152.15,73.4,12.75
88,Port Macquarie,11-05-2017,2152659,75,AU,93,-31.43,152.92,66.2,2.24
89,Punta Arenas,11-05-2017,3874787,0,CL,58,-53.15,-70.92,55.4,11.41
90,Cidreira,11-05-2017,3466165,0,BR,78,-30.18,-50.21,60.31,9.08
91,Barrow,11-05-2017,5880054,75,US,92,71.29,-156.79,28.4,6.93
92,Port Alfred,11-05-2017,964432,44,ZA,98,-33.59,26.89,63.51,16.58
93,Longyearbyen,11-05-2017,2729907,75,SJ,74,78.22,15.64,28.4,8.05
94,Port Alberni,11-05-2017,6111632,20,CA,48,49.24,-124.8,40.05,5.82
95,Baherden,11-05-2017,162158,20,TM,100,38.44,57.43,47.49,1.92
96,Maniitsoq,11-05-2017,3421982,68,GL,100,65.42,-52.9,20.4,16.46
97,Bambanglipuro,11-05-2017,1650434,12,ID,94,-7.95,110.28,77.82,4.05
98,Tuatapere,11-05-2017,2180815,32,NZ,100,-46.13,167.68,48.97,16.24
99,Wawina,11-05-2017,3600280,48,HN,93,15.42,-84.43,74.4,5.06
100,Mathura,11-05-2017,1263364,0,IN,81,27.5,77.68,61.26,2.71
101,Carnarvon,11-05-2017,2074865,0,AU,88,-24.87,113.63,74.22,11.77
102,Dauphin,11-05-2017,5935341,1,CA,72,51.15,-100.05,15.8,20.8
103,Albany,11-05-2017,5106834,90,US,81,42.65,-73.76,53.26,14.99
104,Saint-Philippe,11-05-2017,935215,0,RE,49,-21.36,55.77,68.0,8.05
105,Qaanaaq,11-05-2017,3831208,8,GL,100,77.48,-69.36,-6.74,8.08
106,Achham,11-05-2017,1283742,0,NP,53,29.05,81.3,58.56,3.15
107,Dikson,11-05-2017,1507390,80,RU,100,73.51,80.55,22.56,17.81
108,Atuona,11-05-2017,4020109,56,PF,100,-9.8,-139.03,80.29,13.0
109,Morondava,11-05-2017,1058381,0,MG,100,-20.28,44.28,72.64,2.93
110,Tsiombe,11-05-2017,1054500,0,MG,88,-25.3,45.48,63.73,8.97
111,Quepos,11-05-2017,3622193,75,CR,94,9.42,-84.17,73.4,6.93
112,Ponta do Sol,11-05-2017,2264557,75,PT,64,32.67,-17.1,68.0,18.34
113,Varnek,11-05-2017,1487762,8,RU,81,69.71,60.05,34.35,21.72
114,Tommot,11-05-2017,2015179,88,RU,89,58.96,126.29,2.71,5.73
115,Hastings,11-05-2017,2647356,0,GB,100,50.86,0.57,39.25,10.29
116,Rikitea,11-05-2017,4030556,44,PF,100,-23.12,-134.97,74.67,12.55
117,Port Elizabeth,11-05-2017,964420,0,ZA,82,-33.92,25.57,62.6,11.41
118,Kongwa,11-05-2017,156493,12,TZ,94,-6.2,36.42,58.06,3.6
119,Rikitea,11-05-2017,4030556,44,PF,100,-23.12,-134.97,74.67,12.55
120,Los Llanos de Aridane,11-05-2017,2514651,24,ES,77,28.66,-17.92,68.0,12.75
121,Balapur,11-05-2017,1445310,40,IN,93,17.31,78.48,66.2,3.36
122,Rikitea,11-05-2017,4030556,44,PF,100,-23.12,-134.97,74.67,12.55
123,Gravelbourg,11-05-2017,5965462,8,CA,100,49.88,-106.55,4.2,7.96
124,El Trompillo,11-05-2017,7020913,75,BO,78,-17.8,-63.17,73.4,6.93
125,Pokrovsk,11-05-2017,2017824,0,RU,86,61.48,129.13,-20.29,8.97
126,Kodiak,11-05-2017,5866583,90,US,86,57.79,-152.41,39.2,12.75
127,Sambava,11-05-2017,1056899,32,MG,100,-14.27,50.17,75.43,17.47
128,Muros,11-05-2017,3115824,40,ES,93,42.78,-9.06,48.2,2.24
129,Longyearbyen,11-05-2017,2729907,75,SJ,74,78.22,15.64,28.4,8.05
130,Castro,11-05-2017,3466704,76,BR,90,-24.79,-50.01,57.34,12.21
131,Samarai,11-05-2017,2132606,64,PG,100,-10.62,150.67,81.37,7.07
132,Mathura,11-05-2017,1263364,0,IN,81,27.5,77.68,61.26,2.71
133,Cherskiy,11-05-2017,2126199,88,RU,76,68.75,161.3,33.72,10.09
134,Bethel,11-05-2017,5282297,90,US,93,41.37,-73.41,55.4,3.36
135,Inverell,11-05-2017,2162662,20,AU,100,-29.78,151.12,60.58,6.62
136,Severo-Kurilsk,11-05-2017,2121385,80,RU,100,50.68,156.12,34.26,17.02
137,Rikitea,11-05-2017,4030556,44,PF,100,-23.12,-134.97,74.67,12.55
138,The Valley,11-05-2017,3573374,20,AI,83,18.22,-63.06,80.6,5.82
139,Lavrentiya,11-05-2017,4031637,8,RU,100,65.58,-171.0,34.57,4.05
140,Thinadhoo,11-05-2017,1337610,64,MV,100,0.53,72.93,80.38,12.55
141,Albany,11-05-2017,5106834,90,US,81,42.65,-73.76,53.26,14.99
142,Canakkale,11-05-2017,749780,20,TR,100,40.15,26.41,50.19,6.4
143,Jamestown,11-05-2017,5122534,90,US,100,42.1,-79.24,56.61,11.41
144,Tiassale,11-05-2017,2280761,8,CI,89,5.9,-4.83,75.43,4.5
145,Kapaa,11-05-2017,5848280,40,US,65,22.08,-159.32,80.4,16.11
146,Ólafsvík,11-05-2017,3414079,56,IS,93,64.89,-23.71,45.46,16.24
147,Yuzhno-Kurilsk,11-05-2017,2119447,0,RU,100,44.03,145.86,48.61,19.26
148,Mount Isa,11-05-2017,2065594,0,AU,40,-20.73,139.5,87.8,9.17
149,Kodiak,11-05-2017,5866583,90,US,86,57.79,-152.41,39.2,12.75
150,Leirvik,11-05-2017,3147822,64,NO,81,59.78,5.5,42.8,13.87
151,Rikitea,11-05-2017,4030556,44,PF,100,-23.12,-134.97,74.67,12.55
152,Saldanha,11-05-2017,3361934,0,ZA,77,-33.01,17.94,59.0,16.11
153,Krasnyy Bor,11-05-2017,541826,75,RU,93,59.68,30.67,41.0,6.71
154,Tiksi,11-05-2017,2015306,44,RU,74,71.69,128.87,-24.97,3.38
155,Bethel,11-05-2017,5282297,90,US,93,41.37,-73.41,55.4,3.36
156,Amparihy,11-05-2017,1078317,75,MG,94,-25.02,46.97,68.0,13.87
157,Port Lincoln,11-05-2017,2063036,68,AU,94,-34.73,135.87,59.41,22.17
158,Port Blair,11-05-2017,1259385,32,IN,100,11.67,92.75,82.81,14.45
159,Mahebourg,11-05-2017,934322,40,MU,68,-20.41,57.7,71.6,5.82
160,New Norfolk,11-05-2017,2155415,40,AU,46,-42.78,147.06,53.6,12.75
161,Adrar,11-05-2017,2508813,0,DZ,13,27.87,-0.29,73.4,2.71
162,Ushuaia,11-05-2017,3833367,0,AR,58,-54.8,-68.3,50.56,12.75
163,Hasaki,11-05-2017,2112802,20,JP,87,35.73,140.83,42.01,4.7
164,Barrow,11-05-2017,5880054,75,US,92,71.29,-156.79,28.4,6.93
165,Ushuaia,11-05-2017,3833367,0,AR,58,-54.8,-68.3,50.56,12.75
166,Busselton,11-05-2017,2075265,0,AU,93,-33.65,115.33,65.71,22.28
167,Dikson,11-05-2017,1507390,80,RU,100,73.51,80.55,22.56,17.81
168,Ilulissat,11-05-2017,3423146,8,GL,78,69.22,-51.1,17.6,5.82
169,Nouadhibou,11-05-2017,2377457,44,MR,68,20.93,-17.03,69.8,12.75
170,Rikitea,11-05-2017,4030556,44,PF,100,-23.12,-134.97,74.67,12.55
171,Hobart,11-05-2017,2163355,40,AU,46,-42.88,147.33,53.6,12.75
172,Soeke,11-05-2017,300399,0,TR,81,37.75,27.41,48.18,5.82
173,Hobart,11-05-2017,2163355,40,AU,46,-42.88,147.33,53.6,12.75
174,Chokurdakh,11-05-2017,2126123,68,RU,84,70.63,147.92,20.76,6.17
175,Hobart,11-05-2017,2163355,40,AU,46,-42.88,147.33,53.6,12.75
176,Dikson,11-05-2017,1507390,80,RU,100,73.51,80.55,22.56,17.81
177,Puerto Maldonado,11-05-2017,3931470,20,PE,55,-12.6,-69.18,91.4,3.36
178,Belawan,11-05-2017,1215412,40,ID,94,3.78,98.68,77.0,4.7
179,Xiaoyi,11-05-2017,1789898,0,CN,80,34.62,109.7,44.38,2.93
180,Yellowknife,11-05-2017,6185377,75,CA,61,62.46,-114.35,12.2,8.05
181,Tashla,11-05-2017,484232,92,RU,95,51.77,52.74,39.21,2.59
182,Qaanaaq,11-05-2017,3831208,8,GL,100,77.48,-69.36,-6.74,8.08
183,Rikitea,11-05-2017,4030556,44,PF,100,-23.12,-134.97,74.67,12.55
184,Ushuaia,11-05-2017,3833367,0,AR,58,-54.8,-68.3,50.56,12.75
185,Thompson,11-05-2017,6165406,90,CA,78,55.74,-97.86,17.6,10.29
186,Longkou,11-05-2017,1802550,0,CN,100,37.65,120.33,53.74,17.02
187,Qaanaaq,11-05-2017,3831208,8,GL,100,77.48,-69.36,-6.74,8.08
188,Port Alfred,11-05-2017,964432,44,ZA,98,-33.59,26.89,63.51,16.58
189,Atuona,11-05-2017,4020109,56,PF,100,-9.8,-139.03,80.29,13.0
190,Butaritari,11-05-2017,2110227,88,KI,100,3.07,172.79,82.59,14.12
191,Sao Filipe,11-05-2017,3374210,8,CV,100,14.9,-24.5,78.09,14.67
192,Thompson,11-05-2017,6165406,90,CA,78,55.74,-97.86,17.6,10.29
193,West Arnhem,11-05-2017,7839412,0,AU,49,-12.39,133.38,87.13,10.42
194,Adrar,11-05-2017,2508813,0,DZ,13,27.87,-0.29,73.4,2.71
195,Yellowknife,11-05-2017,6185377,75,CA,61,62.46,-114.35,12.2,8.05
196,Cape Town,11-05-2017,3369157,0,ZA,77,-33.93,18.42,60.8,28.86
197,Kruisfontein,11-05-2017,986717,100,ZA,99,-34.0,24.73,61.17,20.04
198,Sao Jose da Coroa Grande,11-05-2017,3388456,92,BR,99,-8.9,-35.15,72.64,6.51
199,Kapaa,11-05-2017,5848280,40,US,65,22.08,-159.32,80.4,16.11
200,Ponta do Sol,11-05-2017,2264557,75,PT,64,32.67,-17.1,68.0,18.34
201,Saskylakh,11-05-2017,2017155,64,RU,37,71.92,114.08,-2.92,5.5
202,Talnakh,11-05-2017,1490256,80,RU,80,69.49,88.4,22.87,9.42
203,Mathura,11-05-2017,1263364,0,IN,81,27.5,77.68,61.26,2.71
204,Punta Arenas,11-05-2017,3874787,0,CL,58,-53.15,-70.92,55.4,11.41
205,Izhma,11-05-2017,554830,88,RU,85,65.01,53.91,33.31,6.06
206,Krasnyy Bor,11-05-2017,541826,75,RU,93,59.68,30.67,41.0,6.71
207,Tuktoyaktuk,11-05-2017,6170031,90,CA,85,69.45,-133.04,14.0,10.29
208,Hobart,11-05-2017,2163355,40,AU,46,-42.88,147.33,53.6,12.75
209,Chengde,11-05-2017,2038087,0,CN,78,40.97,117.94,28.72,2.37
210,Bengkulu,11-05-2017,1649150,8,ID,100,-3.8,102.27,78.67,4.5
211,Miri,11-05-2017,1738050,75,MY,100,4.41,114.01,75.2,1.12
212,Baykit,11-05-2017,1510689,68,RU,68,61.67,96.37,22.42,6.4
213,Gibson,11-05-2017,4197055,1,US,77,33.23,-82.6,72.09,3.71
214,Kavaratti,11-05-2017,1267390,20,IN,100,10.57,72.64,79.84,3.38
215,Khatanga,11-05-2017,2022572,76,RU,62,71.97,102.5,0.69,6.73
216,Takoradi,11-05-2017,2294915,48,GH,100,4.88,-1.76,79.03,7.74
217,Punta Arenas,11-05-2017,3874787,0,CL,58,-53.15,-70.92,55.4,11.41
218,Bredasdorp,11-05-2017,1015776,8,ZA,59,-34.53,20.04,64.4,6.93
219,Bambous Virieux,11-05-2017,1106677,40,MU,68,-20.34,57.76,71.6,5.82
220,Carnarvon,11-05-2017,2074865,0,AU,88,-24.87,113.63,74.22,11.77
221,Punta Arenas,11-05-2017,3874787,0,CL,58,-53.15,-70.92,55.4,11.41
222,Ebolowa,11-05-2017,2232283,92,CM,96,2.9,11.15,69.72,2.37
223,Lebu,11-05-2017,3883457,44,CL,95,-37.62,-73.65,56.26,11.43
224,Norman Wells,11-05-2017,6089245,75,CA,78,65.28,-126.83,15.8,3.36
225,Leningradskiy,11-05-2017,2123814,48,RU,97,69.38,178.42,28.18,21.61
226,Hermanus,11-05-2017,3366880,80,ZA,93,-34.42,19.23,54.6,4.16
227,Lorengau,11-05-2017,2092164,56,PG,100,-2.02,147.27,83.76,6.96
228,Hermanus,11-05-2017,3366880,80,ZA,93,-34.42,19.23,54.6,4.16
229,Egvekinot,11-05-2017,4031742,92,RU,39,66.32,-179.17,30.21,2.15
230,Talara,11-05-2017,3691582,0,PE,82,-4.58,-81.27,68.0,12.75
231,Butaritari,11-05-2017,2110227,88,KI,100,3.07,172.79,82.59,14.12
232,Tilichiki,11-05-2017,2120591,88,RU,89,60.47,166.1,35.02,17.02
233,Krasnyy Bor,11-05-2017,541826,75,RU,93,59.68,30.67,41.0,6.71
234,Tuktoyaktuk,11-05-2017,6170031,90,CA,85,69.45,-133.04,14.0,10.29
235,Sikasso,11-05-2017,2451185,0,ML,69,11.31,-5.67,72.37,2.71
236,Middelburg,11-05-2017,976361,0,ZA,61,-25.78,29.46,55.77,5.39
237,Currais Novos,11-05-2017,3401283,0,BR,65,-6.26,-36.52,77.19,11.65
238,Rikitea,11-05-2017,4030556,44,PF,100,-23.12,-134.97,74.67,12.55
239,Haines Junction,11-05-2017,5969025,12,CA,79,60.75,-137.51,15.9,2.37
240,Vaini,11-05-2017,4032243,75,TO,69,-21.2,-175.2,80.6,4.7
241,Kez,11-05-2017,550902,88,RU,79,57.9,53.72,30.43,10.76
242,Punta Arenas,11-05-2017,3874787,0,CL,58,-53.15,-70.92,55.4,11.41
243,Caravelas,11-05-2017,3466980,36,BR,98,-17.71,-39.25,78.31,22.5
244,Balapur,11-05-2017,1445310,40,IN,93,17.31,78.48,66.2,3.36
245,Te Anau,11-05-2017,2181625,24,NZ,76,-45.42,167.72,45.82,8.63
246,Buraydah,11-05-2017,107304,0,SA,35,26.33,43.98,73.4,10.29
247,Kapaa,11-05-2017,5848280,40,US,65,22.08,-159.32,80.4,16.11
248,Batagay-Alyta,11-05-2017,2027042,44,RU,0,67.8,130.41,-36.89,3.04
249,Wajir,11-05-2017,178443,92,KE,98,1.75,40.06,70.21,3.49
250,Bluff,11-05-2017,2206939,36,NZ,100,-46.6,168.33,51.22,22.84
251,San Pedro,11-05-2017,1688781,40,PH,100,14.35,121.02,80.6,5.82
252,Namatanai,11-05-2017,2090021,56,PG,100,-3.67,152.43,84.39,9.08
253,Cabo San Lucas,11-05-2017,3985710,20,MX,45,22.89,-109.91,86.0,12.75
254,Kodiak,11-05-2017,5866583,90,US,86,57.79,-152.41,39.2,12.75
255,Karakenja,11-05-2017,1221494,92,TJ,96,39.24,71.52,20.89,1.48
256,Cakovec,11-05-2017,3202888,80,HR,76,46.38,16.43,48.2,1.12
257,Vardo,11-05-2017,777019,75,NO,100,70.37,31.11,29.01,8.05
258,Mu??faz?at Dah?k,11-05-2017,97270,64,IQ,100,37.0,43.25,37.36,2.15
259,Ushuaia,11-05-2017,3833367,0,AR,58,-54.8,-68.3,50.56,12.75
260,Qarqaraly,11-05-2017,1519934,88,KZ,92,49.41,75.47,30.84,5.95
261,Santa Cruz de la Palma,11-05-2017,2511180,24,ES,77,28.68,-17.76,69.8,14.99
262,Tuktoyaktuk,11-05-2017,6170031,90,CA,85,69.45,-133.04,14.0,10.29
263,Sinnamary,11-05-2017,3380290,76,GF,100,5.38,-52.95,79.44,9.75
264,Bilibino,11-05-2017,2126682,92,RU,66,68.05,166.44,33.67,10.65
265,Mahebourg,11-05-2017,934322,40,MU,68,-20.41,57.7,71.6,5.82
266,Najran,11-05-2017,103630,0,SA,34,17.49,44.13,64.4,1.48
267,Sao Filipe,11-05-2017,3374210,8,CV,100,14.9,-24.5,78.09,14.67
268,Pangnirtung,11-05-2017,6096551,0,CA,100,66.15,-65.71,3.57,13.56
269,Vaini,11-05-2017,4032243,75,TO,69,-21.2,-175.2,80.6,4.7
270,Avarua,11-05-2017,4035715,90,CK,83,-21.21,-159.78,77.0,13.87
271,Jussara,11-05-2017,3459394,75,BR,88,-23.62,-52.47,73.4,14.45
272,Deputatskiy,11-05-2017,2028164,76,RU,80,69.3,139.9,-5.93,4.38
273,Rundu,11-05-2017,3353383,0,NA,35,-17.93,19.77,63.24,6.62
274,Bonthe,11-05-2017,2409914,36,SL,95,7.53,-12.51,78.09,3.49
275,Kruisfontein,11-05-2017,986717,100,ZA,99,-34.0,24.73,61.17,20.04
276,Tiznit,11-05-2017,2527087,0,MA,78,29.58,-9.5,47.49,2.59
277,Houston,11-05-2017,4699066,1,US,58,29.76,-95.36,83.79,8.05
278,Ólafsvík,11-05-2017,3414079,56,IS,93,64.89,-23.71,45.46,16.24
279,Punta Arenas,11-05-2017,3874787,0,CL,58,-53.15,-70.92,55.4,11.41
280,Rikitea,11-05-2017,4030556,44,PF,100,-23.12,-134.97,74.67,12.55
281,Talnakh,11-05-2017,1490256,80,RU,80,69.49,88.4,22.87,9.42
282,Ushuaia,11-05-2017,3833367,0,AR,58,-54.8,-68.3,50.56,12.75
283,New Norfolk,11-05-2017,2155415,40,AU,46,-42.78,147.06,53.6,12.75
284,Eyl,11-05-2017,60019,12,SO,97,7.98,49.82,76.42,12.55
285,Mathura,11-05-2017,1263364,0,IN,81,27.5,77.68,61.26,2.71
286,Ribeira Grande,11-05-2017,3372707,40,PT,82,38.52,-28.7,66.2,6.93
287,Felege Neway,11-05-2017,337853,80,ET,89,6.3,36.88,63.24,1.7
288,Yulara,11-05-2017,6355222,0,AU,37,-25.24,130.99,71.6,11.41
289,Santana do Paraiso,11-05-2017,3449933,88,BR,100,-19.36,-42.57,68.46,3.38
290,Hermosillo,11-05-2017,4004898,5,MX,18,29.07,-110.97,93.2,5.39
291,Katsuura,11-05-2017,2112309,20,JP,58,35.13,140.3,53.6,5.82
292,Rikitea,11-05-2017,4030556,44,PF,100,-23.12,-134.97,74.67,12.55
293,Busselton,11-05-2017,2075265,0,AU,93,-33.65,115.33,65.71,22.28
294,Vaini,11-05-2017,4032243,75,TO,69,-21.2,-175.2,80.6,4.7
295,Mathura,11-05-2017,1263364,0,IN,81,27.5,77.68,61.26,2.71
296,Ludwigsburg,11-05-2017,2875392,75,DE,87,48.9,9.19,42.8,6.93
297,Arraial do Cabo,11-05-2017,3471451,92,BR,100,-22.97,-42.03,71.61,13.0
298,Mar del Plata,11-05-2017,3430863,0,AR,77,-38.0,-57.56,60.8,3.36
299,Norman Wells,11-05-2017,6089245,75,CA,78,65.28,-126.83,15.8,3.36
300,Victoria,11-05-2017,6174041,75,CA,41,48.43,-123.37,40.98,6.93
301,Faanui,11-05-2017,4034551,80,PF,100,-16.48,-151.75,78.45,6.4
302,Hithadhoo,11-05-2017,1282256,76,MV,100,-0.6,73.08,76.74,12.44
303,Bredasdorp,11-05-2017,1015776,8,ZA,59,-34.53,20.04,64.4,6.93
304,Cherskiy,11-05-2017,2126199,88,RU,76,68.75,161.3,33.72,10.09
305,Gibson,11-05-2017,4197055,1,US,77,33.23,-82.6,72.09,3.71
306,Barenburg,11-05-2017,2952767,0,DE,86,52.62,8.8,41.49,4.7
307,Asau,11-05-2017,686090,90,RO,100,46.43,26.4,46.4,11.41
308,Pevek,11-05-2017,2122090,44,RU,75,69.7,170.31,31.69,26.19
309,Ushuaia,11-05-2017,3833367,0,AR,58,-54.8,-68.3,50.56,12.75
310,Balclutha,11-05-2017,2208248,76,NZ,58,-46.23,169.75,52.8,20.6
311,Lebu,11-05-2017,3883457,44,CL,95,-37.62,-73.65,56.26,11.43
312,Mathura,11-05-2017,1263364,0,IN,81,27.5,77.68,61.26,2.71
313,Carnarvon,11-05-2017,2074865,0,AU,88,-24.87,113.63,74.22,11.77
314,Kodiak,11-05-2017,5866583,90,US,86,57.79,-152.41,39.2,12.75
315,Shingu,11-05-2017,1847947,20,JP,82,33.73,135.98,55.4,2.24
316,Departamento del Vichada,11-05-2017,3666082,48,CO,80,5.0,-69.5,79.84,1.59
317,Busselton,11-05-2017,2075265,0,AU,93,-33.65,115.33,65.71,22.28
318,Asau,11-05-2017,686090,90,RO,100,46.43,26.4,46.4,11.41
319,San Quintin,11-05-2017,3984997,0,MX,51,30.48,-115.95,71.07,9.75
320,Cabedelo,11-05-2017,3404558,40,BR,83,-6.98,-34.83,75.2,5.82
321,Barrow,11-05-2017,5880054,75,US,92,71.29,-156.79,28.4,6.93
322,Tuktoyaktuk,11-05-2017,6170031,90,CA,85,69.45,-133.04,14.0,10.29
323,Mathura,11-05-2017,1263364,0,IN,81,27.5,77.68,61.26,2.71
324,Mathura,11-05-2017,1263364,0,IN,81,27.5,77.68,61.26,2.71
325,Broome,11-05-2017,2075720,40,AU,74,-17.97,122.23,84.2,11.41
326,Roald,11-05-2017,3141667,40,NO,70,62.58,6.13,39.38,11.41
327,Saint-Georges,11-05-2017,6138282,92,CA,80,46.62,-72.66,46.36,10.09
328,Ola,11-05-2017,2122574,75,RU,85,59.58,151.28,15.8,8.95
329,Butaritari,11-05-2017,2110227,88,KI,100,3.07,172.79,82.59,14.12
330,Dalton,11-05-2017,1012080,92,ZA,94,-29.34,30.63,63.24,2.71
331,Krasnyy Bor,11-05-2017,541826,75,RU,93,59.68,30.67,41.0,6.71
332,Mathura,11-05-2017,1263364,0,IN,81,27.5,77.68,61.26,2.71
333,Yellowknife,11-05-2017,6185377,75,CA,61,62.46,-114.35,12.2,8.05
334,Lakes Entrance,11-05-2017,2160735,88,AU,100,-37.88,147.98,53.16,4.16
335,Saint George,11-05-2017,5546220,1,US,32,37.1,-113.58,68.0,10.29
336,Castro,11-05-2017,3466704,76,BR,90,-24.79,-50.01,57.34,12.21
337,Lebu,11-05-2017,3883457,44,CL,95,-37.62,-73.65,56.26,11.43
338,Kodinsk,11-05-2017,1503037,76,RU,77,58.69,99.18,26.11,5.17
339,Rikitea,11-05-2017,4030556,44,PF,100,-23.12,-134.97,74.67,12.55
340,San Rafael del Sur,11-05-2017,3616594,20,NI,59,11.85,-86.44,89.6,4.7
341,Kembe,11-05-2017,238373,0,CF,93,4.62,21.89,68.41,2.71
342,La Palma,11-05-2017,5364022,75,US,64,33.85,-118.05,69.46,11.41
343,Puerto Narino,11-05-2017,3671387,75,CO,94,-3.77,-70.38,75.2,2.93
344,Srandakan,11-05-2017,1626493,12,ID,94,-7.94,110.25,77.82,4.05
345,Mount Gambier,11-05-2017,2156643,92,AU,69,-37.83,140.77,56.85,9.53
346,Albany,11-05-2017,5106834,90,US,81,42.65,-73.76,53.26,14.99
347,Ushuaia,11-05-2017,3833367,0,AR,58,-54.8,-68.3,50.56,12.75
348,Atuona,11-05-2017,4020109,56,PF,100,-9.8,-139.03,80.29,13.0
349,Hithadhoo,11-05-2017,1282256,76,MV,100,-0.6,73.08,76.74,12.44
350,Ushuaia,11-05-2017,3833367,0,AR,58,-54.8,-68.3,50.56,12.75
351,Khatanga,11-05-2017,2022572,76,RU,62,71.97,102.5,0.69,6.73
352,Bure,11-05-2017,341397,56,ET,72,10.7,37.07,53.56,2.48
353,Pascagoula,11-05-2017,4440397,1,US,78,30.37,-88.56,74.98,4.7
354,Riyadh,11-05-2017,108410,0,SA,30,24.69,46.72,69.8,3.36
355,Ushuaia,11-05-2017,3833367,0,AR,58,-54.8,-68.3,50.56,12.75
356,Tuktoyaktuk,11-05-2017,6170031,90,CA,85,69.45,-133.04,14.0,10.29
357,Vaini,11-05-2017,4032243,75,TO,69,-21.2,-175.2,80.6,4.7
358,Rikitea,11-05-2017,4030556,44,PF,100,-23.12,-134.97,74.67,12.55
359,Geraldton,11-05-2017,2070998,0,AU,19,-28.77,114.6,78.8,20.8
360,Castro,11-05-2017,3466704,76,BR,90,-24.79,-50.01,57.34,12.21
361,Port Macquarie,11-05-2017,2152659,75,AU,93,-31.43,152.92,66.2,2.24
362,Hobart,11-05-2017,2163355,40,AU,46,-42.88,147.33,53.6,12.75
363,At-Bashi,11-05-2017,1528796,80,KG,100,41.17,75.81,23.14,2.93
364,Derzhavinsk,11-05-2017,1524606,64,KZ,100,51.1,66.32,33.04,9.19
365,Pisco,11-05-2017,3932145,0,PE,68,-13.7,-76.22,66.2,17.22
366,Upernavik,11-05-2017,3418910,68,GL,100,72.79,-56.15,19.09,28.66
367,Wewak,11-05-2017,2083537,40,PG,83,-3.55,143.63,80.6,3.04
368,Port Alfred,11-05-2017,964432,44,ZA,98,-33.59,26.89,63.51,16.58
369,Rikitea,11-05-2017,4030556,44,PF,100,-23.12,-134.97,74.67,12.55
370,Busselton,11-05-2017,2075265,0,AU,93,-33.65,115.33,65.71,22.28
371,Saint-Augustin,11-05-2017,6137462,36,CA,100,51.23,-58.65,32.23,17.02
372,Laguna,11-05-2017,5364271,1,US,44,38.42,-121.42,59.56,3.36
373,Ushuaia,11-05-2017,3833367,0,AR,58,-54.8,-68.3,50.56,12.75
374,Albany,11-05-2017,5106834,90,US,81,42.65,-73.76,53.26,14.99
375,Roswell,11-05-2017,4219934,1,US,88,34.02,-84.36,72.34,3.36
376,Krasnyy Bor,11-05-2017,541826,75,RU,93,59.68,30.67,41.0,6.71
377,Butaritari,11-05-2017,2110227,88,KI,100,3.07,172.79,82.59,14.12
378,Ushuaia,11-05-2017,3833367,0,AR,58,-54.8,-68.3,50.56,12.75
379,Bredasdorp,11-05-2017,1015776,8,ZA,59,-34.53,20.04,64.4,6.93
380,Los Llanos de Aridane,11-05-2017,2514651,24,ES,77,28.66,-17.92,68.0,12.75
381,Ushuaia,11-05-2017,3833367,0,AR,58,-54.8,-68.3,50.56,12.75
382,Pevek,11-05-2017,2122090,44,RU,75,69.7,170.31,31.69,26.19
383,Vaini,11-05-2017,4032243,75,TO,69,-21.2,-175.2,80.6,4.7
384,Punta Arenas,11-05-2017,3874787,0,CL,58,-53.15,-70.92,55.4,11.41
385,Namatanai,11-05-2017,2090021,56,PG,100,-3.67,152.43,84.39,9.08
386,Hokitika,11-05-2017,2206894,88,NZ,87,-42.72,170.97,54.51,19.48
387,Busselton,11-05-2017,2075265,0,AU,93,-33.65,115.33,65.71,22.28
388,Alofi,11-05-2017,4036284,48,NU,69,-19.06,-169.92,80.6,14.99
389,Longyearbyen,11-05-2017,2729907,75,SJ,74,78.22,15.64,28.4,8.05
390,Meulaboh,11-05-2017,1214488,8,ID,100,4.14,96.13,77.68,5.61
391,Norman Wells,11-05-2017,6089245,75,CA,78,65.28,-126.83,15.8,3.36
392,Busselton,11-05-2017,2075265,0,AU,93,-33.65,115.33,65.71,22.28
393,Punta Arenas,11-05-2017,3874787,0,CL,58,-53.15,-70.92,55.4,11.41
394,Hilo,11-05-2017,5855927,90,US,69,19.73,-155.09,72.68,13.87
395,Fairbanks,11-05-2017,5861897,90,US,100,64.84,-147.72,26.1,1.48
396,Banjar,11-05-2017,1650232,20,ID,94,-8.19,114.97,78.8,1.12
397,Lobito,11-05-2017,3347939,88,AO,99,-12.35,13.55,70.66,2.59
398,Carnarvon,11-05-2017,2074865,0,AU,88,-24.87,113.63,74.22,11.77
399,Ushuaia,11-05-2017,3833367,0,AR,58,-54.8,-68.3,50.56,12.75
400,Vila Franca do Campo,11-05-2017,3372472,20,PT,72,37.72,-25.43,62.6,4.7
401,Clyde River,11-05-2017,5924351,1,CA,69,70.47,-68.59,-7.61,8.05
402,Port Alfred,11-05-2017,964432,44,ZA,98,-33.59,26.89,63.51,16.58
403,Kapaa,11-05-2017,5848280,40,US,65,22.08,-159.32,80.4,16.11
404,New Norfolk,11-05-2017,2155415,40,AU,46,-42.78,147.06,53.6,12.75
405,Punta Arenas,11-05-2017,3874787,0,CL,58,-53.15,-70.92,55.4,11.41
406,Dikson,11-05-2017,1507390,80,RU,100,73.51,80.55,22.56,17.81
407,Cabedelo,11-05-2017,3404558,40,BR,83,-6.98,-34.83,75.2,5.82
408,Hermanus,11-05-2017,3366880,80,ZA,93,-34.42,19.23,54.6,4.16
409,Cherskiy,11-05-2017,2126199,88,RU,76,68.75,161.3,33.72,10.09
410,Huambo,11-05-2017,3348313,24,AO,93,-12.78,15.74,56.17,2.37
411,Blagoveshchenka,11-05-2017,1509999,88,RU,87,52.83,79.87,34.44,11.1
412,Barenburg,11-05-2017,2952767,0,DE,86,52.62,8.8,41.49,4.7
413,Bluff,11-05-2017,2206939,36,NZ,100,-46.6,168.33,51.22,22.84
414,Aura,11-05-2017,660874,92,FI,100,60.62,22.58,48.2,8.05
415,New Norfolk,11-05-2017,2155415,40,AU,46,-42.78,147.06,53.6,12.75
416,Esperance,11-05-2017,2071860,12,AU,64,-33.87,121.9,61.62,11.1
417,Port Hedland,11-05-2017,2063042,0,AU,83,-20.32,118.57,80.6,13.87
418,Camacha,11-05-2017,2270385,40,PT,64,33.08,-16.33,68.0,10.29
419,Busselton,11-05-2017,2075265,0,AU,93,-33.65,115.33,65.71,22.28
420,Betanzos,11-05-2017,3128071,40,ES,100,43.28,-8.21,49.03,2.24
421,Upernavik,11-05-2017,3418910,68,GL,100,72.79,-56.15,19.09,28.66
422,Norman Wells,11-05-2017,6089245,75,CA,78,65.28,-126.83,15.8,3.36
423,San Juan,11-05-2017,3929520,0,PE,97,-15.37,-75.16,59.55,10.2
424,Grindavik,11-05-2017,3416888,90,IS,93,63.84,-22.43,38.25,17.22
425,Weligama,11-05-2017,1223738,88,LK,100,5.97,80.42,76.24,7.96
426,Rikitea,11-05-2017,4030556,44,PF,100,-23.12,-134.97,74.67,12.55
427,Ushuaia,11-05-2017,3833367,0,AR,58,-54.8,-68.3,50.56,12.75
428,Puerto Ayora,11-05-2017,3652764,75,EC,68,-0.74,-90.35,71.6,18.34
429,West Arnhem,11-05-2017,7839412,0,AU,49,-12.39,133.38,87.13,10.42
430,Tabas,11-05-2017,113659,0,IR,72,33.6,56.92,50.41,2.71
431,Saint-Philippe,11-05-2017,935215,0,RE,49,-21.36,55.77,68.0,8.05
432,Funtua,11-05-2017,2342490,0,NG,51,11.52,7.31,64.41,5.06
433,Busselton,11-05-2017,2075265,0,AU,93,-33.65,115.33,65.71,22.28
434,Nanortalik,11-05-2017,3421765,0,GL,96,60.14,-45.24,31.92,53.15
435,Albany,11-05-2017,5106834,90,US,81,42.65,-73.76,53.26,14.99
436,Mizdah,11-05-2017,2214827,0,LY,76,31.45,12.98,49.51,5.61
437,Rikitea,11-05-2017,4030556,44,PF,100,-23.12,-134.97,74.67,12.55
438,Waingapu,11-05-2017,1622318,12,ID,81,-9.66,120.26,80.56,4.05
439,Saint-Philippe,11-05-2017,935215,0,RE,49,-21.36,55.77,68.0,8.05
440,Arraial do Cabo,11-05-2017,3471451,92,BR,100,-22.97,-42.03,71.61,13.0
441,Ulaangom,11-05-2017,1515029,0,MN,83,49.98,92.07,-3.59,2.15
442,Kavieng,11-05-2017,2094342,92,PG,100,-2.57,150.8,85.33,8.75
443,Atuona,11-05-2017,4020109,56,PF,100,-9.8,-139.03,80.29,13.0
444,Castro,11-05-2017,3466704,76,BR,90,-24.79,-50.01,57.34,12.21
445,Leningradskiy,11-05-2017,2123814,48,RU,97,69.38,178.42,28.18,21.61
446,Deputatskiy,11-05-2017,2028164,76,RU,80,69.3,139.9,-5.93,4.38
447,Sorong,11-05-2017,1626542,56,ID,100,-0.88,131.25,80.83,3.71
448,Atuona,11-05-2017,4020109,56,PF,100,-9.8,-139.03,80.29,13.0
449,Georgetown,11-05-2017,3378644,20,GY,83,6.8,-58.16,80.6,9.17
450,Isangel,11-05-2017,2136825,92,VU,100,-19.55,169.27,77.77,3.71
451,Ostrovnoy,11-05-2017,556268,64,RU,92,68.05,39.51,24.58,8.97
452,Rikitea,11-05-2017,4030556,44,PF,100,-23.12,-134.97,74.67,12.55
453,Labuhan,11-05-2017,8079926,12,ID,100,-6.88,112.21,83.71,8.63
454,Vanavara,11-05-2017,2013727,76,RU,72,60.34,102.28,21.43,4.05
455,Sistranda,11-05-2017,3139597,40,NO,75,63.73,8.83,42.8,16.11
456,Khatanga,11-05-2017,2022572,76,RU,62,71.97,102.5,0.69,6.73
457,Butaritari,11-05-2017,2110227,88,KI,100,3.07,172.79,82.59,14.12
458,Portland,11-05-2017,5746545,75,US,53,45.52,-122.68,50.52,11.41
459,Notse,11-05-2017,2364752,0,TG,87,6.95,1.17,73.14,3.71
460,Cidreira,11-05-2017,3466165,0,BR,78,-30.18,-50.21,60.31,9.08
461,Hermanus,11-05-2017,3366880,80,ZA,93,-34.42,19.23,54.6,4.16
462,Amparihy,11-05-2017,1078317,75,MG,94,-25.02,46.97,68.0,13.87
463,East London,11-05-2017,1006984,8,ZA,100,-33.02,27.91,66.16,19.6
464,Albany,11-05-2017,5106834,90,US,81,42.65,-73.76,53.26,14.99
465,Arriaga,11-05-2017,3816739,0,MX,60,16.23,-93.9,82.59,14.0
466,Western Province,11-05-2017,896140,0,ZM,36,-15.0,24.0,69.31,6.96
467,Ranong,11-05-2017,1150965,0,TH,100,9.97,98.63,76.69,11.65
468,Kloulklubed,11-05-2017,7671223,90,PW,88,7.04,134.26,80.6,6.73
469,Qaanaaq,11-05-2017,3831208,8,GL,100,77.48,-69.36,-6.74,8.08
470,New Norfolk,11-05-2017,2155415,40,AU,46,-42.78,147.06,53.6,12.75
471,Punta Arenas,11-05-2017,3874787,0,CL,58,-53.15,-70.92,55.4,11.41
472,Tiksi,11-05-2017,2015306,44,RU,74,71.69,128.87,-24.97,3.38
473,Ushuaia,11-05-2017,3833367,0,AR,58,-54.8,-68.3,50.56,12.75
474,Albany,11-05-2017,5106834,90,US,81,42.65,-73.76,53.26,14.99
475,Gambela,11-05-2017,337405,8,ET,96,8.25,34.58,59.37,3.71
476,Varnek,11-05-2017,1487762,8,RU,81,69.71,60.05,34.35,21.72
477,Butaritari,11-05-2017,2110227,88,KI,100,3.07,172.79,82.59,14.12
478,Severo-Kurilsk,11-05-2017,2121385,80,RU,100,50.68,156.12,34.26,17.02
479,Atuona,11-05-2017,4020109,56,PF,100,-9.8,-139.03,80.29,13.0
480,Albany,11-05-2017,5106834,90,US,81,42.65,-73.76,53.26,14.99
481,Ushuaia,11-05-2017,3833367,0,AR,58,-54.8,-68.3,50.56,12.75
482,Saint-Philippe,11-05-2017,935215,0,RE,49,-21.36,55.77,68.0,8.05
483,Takoradi,11-05-2017,2294915,48,GH,100,4.88,-1.76,79.03,7.74
484,Severo-Kurilsk,11-05-2017,2121385,80,RU,100,50.68,156.12,34.26,17.02
485,Xinzhou,11-05-2017,1788457,92,CN,94,24.87,105.35,54.73,2.15
486,Barrow,11-05-2017,5880054,75,US,92,71.29,-156.79,28.4,6.93
487,Cape Town,11-05-2017,3369157,0,ZA,77,-33.93,18.42,60.8,28.86
488,Beloha,11-05-2017,1067565,0,MG,82,-25.17,45.05,64.32,11.99
489,Thompson,11-05-2017,6165406,90,CA,78,55.74,-97.86,17.6,10.29
490,Constitucion,11-05-2017,3893726,88,CL,97,-35.33,-72.42,56.71,6.62
491,Porto Novo,11-05-2017,3374336,20,CV,73,17.02,-25.06,77.0,19.46
492,North Bend,11-05-2017,5742974,90,US,87,43.41,-124.22,49.23,3.36
493,Tessalit,11-05-2017,2449893,0,ML,40,20.2,1.01,57.66,3.15
494,Bluff,11-05-2017,2206939,36,NZ,100,-46.6,168.33,51.22,22.84
495,Harper,11-05-2017,2276492,76,LR,100,4.38,-7.72,77.82,6.17
496,Albany,11-05-2017,5106834,90,US,81,42.65,-73.76,53.26,14.99
497,Tilichiki,11-05-2017,2120591,88,RU,89,60.47,166.1,35.02,17.02
498,Hermanus,11-05-2017,3366880,80,ZA,93,-34.42,19.23,54.6,4.16
499,Kapaa,11-05-2017,5848280,40,US,65,22.08,-159.32,80.4,16.11
500,Riyadh,11-05-2017,108410,0,SA,30,24.69,46.72,69.8,3.36
501,Norman Wells,11-05-2017,6089245,75,CA,78,65.28,-126.83,15.8,3.36
502,Carnarvon,11-05-2017,2074865,0,AU,88,-24.87,113.63,74.22,11.77
503,Atuona,11-05-2017,4020109,56,PF,100,-9.8,-139.03,80.29,13.0
504,Rudnik,11-05-2017,1544819,44,RU,71,69.75,61.65,33.36,17.58
505,Mathura,11-05-2017,1263364,0,IN,81,27.5,77.68,61.26,2.71
506,Puerto Ayora,11-05-2017,3652764,75,EC,68,-0.74,-90.35,71.6,18.34
507,Ushuaia,11-05-2017,3833367,0,AR,58,-54.8,-68.3,50.56,12.75
508,Polyarnyye Zori,11-05-2017,506762,92,RU,92,67.37,32.5,33.13,3.6
509,Rikitea,11-05-2017,4030556,44,PF,100,-23.12,-134.97,74.67,12.55
510,Chuy,11-05-2017,3443061,0,UY,82,-33.7,-53.46,59.46,10.98
511,Varnek,11-05-2017,1487762,8,RU,81,69.71,60.05,34.35,21.72
512,Hovd,11-05-2017,1516048,0,MN,76,48.01,91.64,13.11,4.5
513,Hermanus,11-05-2017,3366880,80,ZA,93,-34.42,19.23,54.6,4.16
514,Panaba,11-05-2017,3521972,76,MX,67,21.28,-88.27,77.59,6.96
515,Aswan,11-05-2017,359792,0,EG,34,24.09,32.91,66.2,8.05
516,Saint-Philippe,11-05-2017,935215,0,RE,49,-21.36,55.77,68.0,8.05
517,Mathura,11-05-2017,1263364,0,IN,81,27.5,77.68,61.26,2.71
518,Kichmengskiy Gorodok,11-05-2017,548791,92,RU,93,59.98,45.79,37.5,6.51
519,Lata,11-05-2017,2738381,0,PT,81,40.16,-8.33,53.6,3.36
520,Basco,11-05-2017,1726449,92,PH,100,20.45,121.97,80.47,21.5
521,Bandarbeyla,11-05-2017,64814,56,SO,100,9.49,50.81,78.45,17.13
522,Richards Bay,11-05-2017,962367,64,ZA,100,-28.78,32.04,65.62,4.05
523,Nizhnekamsk,11-05-2017,521118,90,RU,92,55.64,51.82,30.2,6.71
524,Ojinaga,11-05-2017,3994469,0,MX,21,29.57,-104.42,80.07,2.59
525,Busselton,11-05-2017,2075265,0,AU,93,-33.65,115.33,65.71,22.28
526,Amparihy,11-05-2017,1078317,75,MG,94,-25.02,46.97,68.0,13.87
527,Kolondieba,11-05-2017,2454934,20,ML,56,11.09,-6.89,74.44,8.52
528,Horta (Angústias),11-05-2017,8013523,40,PT,82,38.53,-28.64,66.2,6.93
529,Yumen,11-05-2017,1528998,20,CN,91,40.28,97.2,36.51,10.65
530,Souillac,11-05-2017,933995,40,MU,68,-20.52,57.52,71.6,5.82
531,Nizhnekamsk,11-05-2017,521118,90,RU,92,55.64,51.82,30.2,6.71
532,Rikitea,11-05-2017,4030556,44,PF,100,-23.12,-134.97,74.67,12.55
533,Hobart,11-05-2017,2163355,40,AU,46,-42.88,147.33,53.6,12.75
534,Ballina,11-05-2017,2177069,92,AU,100,-28.87,153.57,69.9,1.14
535,Namibe,11-05-2017,3347019,20,AO,99,-15.2,12.15,74.85,5.61
536,Ushuaia,11-05-2017,3833367,0,AR,58,-54.8,-68.3,50.56,12.75
537,Arraial do Cabo,11-05-2017,3471451,92,BR,100,-22.97,-42.03,71.61,13.0
538,Albany,11-05-2017,5106834,90,US,81,42.65,-73.76,53.26,14.99
539,Hornepayne,11-05-2017,5977046,88,CA,100,49.21,-84.77,34.12,5.61
540,Coquimbo,11-05-2017,3893629,0,CL,77,-29.95,-71.34,60.8,5.82
541,Grande Riviere Sud Est,11-05-2017,934475,40,MU,68,-20.29,57.78,71.6,5.82
542,Kapaa,11-05-2017,5848280,40,US,65,22.08,-159.32,80.4,16.11
543,Sitka,11-05-2017,5557293,1,US,55,57.05,-135.33,42.17,4.94
544,Amparihy,11-05-2017,1078317,75,MG,94,-25.02,46.97,68.0,13.87
545,Bluff,11-05-2017,2206939,36,NZ,100,-46.6,168.33,51.22,22.84
546,Ust-Nera,11-05-2017,2120048,88,RU,98,64.57,143.2,-11.56,2.48
547,Saskylakh,11-05-2017,2017155,64,RU,37,71.92,114.08,-2.92,5.5
548,Roebourne,11-05-2017,2062276,0,AU,29,-20.78,117.13,96.76,4.61
549,Lourdes,11-05-2017,2997395,75,FR,81,43.1,-0.05,43.65,9.17
550,Kapaa,11-05-2017,5848280,40,US,65,22.08,-159.32,80.4,16.11
551,Nanortalik,11-05-2017,3421765,0,GL,96,60.14,-45.24,31.92,53.15
552,Thinadhoo,11-05-2017,1337610,64,MV,100,0.53,72.93,80.38,12.55
553,Geraldton,11-05-2017,2070998,0,AU,19,-28.77,114.6,78.8,20.8
554,Bethel,11-05-2017,5282297,90,US,93,41.37,-73.41,55.4,3.36
555,Dunedin,11-05-2017,2191562,64,NZ,53,-45.87,170.5,53.38,14.23
556,Taksimo,11-05-2017,2015701,36,RU,52,56.34,114.88,15.67,4.16
557,New Norfolk,11-05-2017,2155415,40,AU,46,-42.78,147.06,53.6,12.75
558,Deputatskiy,11-05-2017,2028164,76,RU,80,69.3,139.9,-5.93,4.38
559,Birobidzhan,11-05-2017,2026643,0,RU,75,48.8,132.95,31.65,8.41
560,Mount Isa,11-05-2017,2065594,0,AU,40,-20.73,139.5,87.8,9.17
561,Kashechewan,11-05-2017,5989520,64,CA,77,52.3,-81.62,37.99,10.54
562,Callaway,11-05-2017,4149635,1,US,65,30.15,-85.57,76.91,6.93
563,Jamestown,11-05-2017,5122534,90,US,100,42.1,-79.24,56.61,11.41
564,Leh,11-05-2017,1264976,36,IN,46,34.17,77.58,-3.73,0.36
565,Cassilandia,11-05-2017,3466750,32,BR,89,-19.11,-51.73,72.87,5.61
566,Bredasdorp,11-05-2017,1015776,8,ZA,59,-34.53,20.04,64.4,6.93
567,Butaritari,11-05-2017,2110227,88,KI,100,3.07,172.79,82.59,14.12
568,Juba,11-05-2017,373303,24,SS,92,4.85,31.58,68.77,5.06
569,Sault Sainte Marie,11-05-2017,5009004,90,US,87,46.5,-84.35,43.43,21.92
570,Saint-Philippe,11-05-2017,935215,0,RE,49,-21.36,55.77,68.0,8.05
571,Bredasdorp,11-05-2017,1015776,8,ZA,59,-34.53,20.04,64.4,6.93
572,Sharhorod,11-05-2017,694350,32,UA,95,48.74,28.09,38.67,10.76
573,Bathsheba,11-05-2017,3374083,40,BB,88,13.22,-59.52,80.6,14.99
574,Opotiki,11-05-2017,2208332,36,NZ,95,-38.08,177.28,61.39,13.44
575,Jinhua,11-05-2017,2045485,8,CN,91,41.43,128.03,34.35,3.94
576,Namatanai,11-05-2017,2090021,56,PG,100,-3.67,152.43,84.39,9.08
577,Choix,11-05-2017,4014109,0,MX,28,26.71,-108.32,85.74,2.15
578,Bambous Virieux,11-05-2017,1106677,40,MU,68,-20.34,57.76,71.6,5.82
579,Horasan,11-05-2017,745527,88,TR,100,40.05,42.17,21.34,4.5
580,Atuona,11-05-2017,4020109,56,PF,100,-9.8,-139.03,80.29,13.0
581,Beringovskiy,11-05-2017,2126710,76,RU,93,63.05,179.32,36.87,23.06
582,Lata,11-05-2017,2738381,0,PT,81,40.16,-8.33,53.6,3.36
583,Mar del Plata,11-05-2017,3430863,0,AR,77,-38.0,-57.56,60.8,3.36
584,Santa Cruz,11-05-2017,1688253,40,PH,100,14.28,121.42,80.6,5.82
585,Hofn,11-05-2017,2630299,92,IS,100,64.25,-15.21,40.2,34.58
586,Adrar,11-05-2017,2508813,0,DZ,13,27.87,-0.29,73.4,2.71
587,Mu??faz?at ?am?h,11-05-2017,170015,0,SY,97,35.17,37.25,46.18,6.17
588,New Norfolk,11-05-2017,2155415,40,AU,46,-42.78,147.06,53.6,12.75
589,Hasaki,11-05-2017,2112802,20,JP,87,35.73,140.83,42.01,4.7
590,Mathura,11-05-2017,1263364,0,IN,81,27.5,77.68,61.26,2.71
591,Sadovo,11-05-2017,727479,0,BG,100,42.13,24.93,35.6,2.24
592,Tuktoyaktuk,11-05-2017,6170031,90,CA,85,69.45,-133.04,14.0,10.29
593,Acapulco de Juarez,11-05-2017,3533462,5,MX,79,16.86,-99.89,86.0,9.17
594,Rehnan,11-05-2017,418521,0,IR,41,32.68,51.6,41.0,4.7
595,Albany,11-05-2017,5106834,90,US,81,42.65,-73.76,53.26,14.99
596,Barenburg,11-05-2017,2952767,0,DE,86,52.62,8.8,41.49,4.7
597,Valdivia,11-05-2017,3868707,20,CL,72,-39.81,-73.25,60.8,5.82
598,Touggourt,11-05-2017,2475475,20,DZ,45,33.11,6.06,64.4,5.82
599,Le Port,11-05-2017,935616,0,RE,56,-20.94,55.29,68.0,8.05
600,Hobart,11-05-2017,2163355,40,AU,46,-42.88,147.33,53.6,12.75
601,Qaanaaq,11-05-2017,3831208,8,GL,100,77.48,-69.36,-6.74,8.08
602,Sumkino,11-05-2017,1490655,80,RU,89,58.11,68.32,27.73,7.63
603,Mount Gambier,11-05-2017,2156643,92,AU,69,-37.83,140.77,56.85,9.53
604,Busselton,11-05-2017,2075265,0,AU,93,-33.65,115.33,65.71,22.28
605,Key Largo,11-05-2017,4160795,1,US,83,25.09,-80.45,77.85,4.7
606,Grand Gaube,11-05-2017,934479,40,MU,68,-20.01,57.66,71.6,5.82
607,Avarua,11-05-2017,4035715,90,CK,83,-21.21,-159.78,77.0,13.87
608,Jamestown,11-05-2017,5122534,90,US,100,42.1,-79.24,56.61,11.41
609,Hithadhoo,11-05-2017,1282256,76,MV,100,-0.6,73.08,76.74,12.44
610,Barrow,11-05-2017,5880054,75,US,92,71.29,-156.79,28.4,6.93
611,Bathsheba,11-05-2017,3374083,40,BB,88,13.22,-59.52,80.6,14.99
612,Tsiombe,11-05-2017,1054500,0,MG,88,-25.3,45.48,63.73,8.97
613,Rikitea,11-05-2017,4030556,44,PF,100,-23.12,-134.97,74.67,12.55
614,Hasaki,11-05-2017,2112802,20,JP,87,35.73,140.83,42.01,4.7
615,Leningradskiy,11-05-2017,2123814,48,RU,97,69.38,178.42,28.18,21.61
616,Jamestown,11-05-2017,5122534,90,US,100,42.1,-79.24,56.61,11.41
617,High Level,11-05-2017,5975004,90,CA,67,58.52,-117.14,17.6,5.82
618,Kodiak,11-05-2017,5866583,90,US,86,57.79,-152.41,39.2,12.75
619,Tasiilaq,11-05-2017,3424607,20,GL,100,65.61,-37.64,33.76,65.79
620,Hobart,11-05-2017,2163355,40,AU,46,-42.88,147.33,53.6,12.75
621,Ponta Delgada,11-05-2017,3372783,20,PT,72,37.73,-25.67,62.6,4.7
622,Nouadhibou,11-05-2017,2377457,44,MR,68,20.93,-17.03,69.8,12.75
623,Carnarvon,11-05-2017,2074865,0,AU,88,-24.87,113.63,74.22,11.77
624,Severo-Kurilsk,11-05-2017,2121385,80,RU,100,50.68,156.12,34.26,17.02
625,Rikitea,11-05-2017,4030556,44,PF,100,-23.12,-134.97,74.67,12.55
626,Namtsy,11-05-2017,2019488,20,RU,81,62.72,129.67,-26.63,8.19
627,Punta Arenas,11-05-2017,3874787,0,CL,58,-53.15,-70.92,55.4,11.41
628,Rio Gallegos,11-05-2017,3838859,20,AR,47,-51.62,-69.22,59.0,18.34
629,Rikitea,11-05-2017,4030556,44,PF,100,-23.12,-134.97,74.67,12.55
630,Hermanus,11-05-2017,3366880,80,ZA,93,-34.42,19.23,54.6,4.16
631,Chesma,11-05-2017,1507926,0,RU,93,53.81,60.65,17.11,9.42
632,Amparihy,11-05-2017,1078317,75,MG,94,-25.02,46.97,68.0,13.87
633,Klaksvik,11-05-2017,2618795,68,FO,80,62.23,-6.59,30.2,16.24
634,East London,11-05-2017,1006984,8,ZA,100,-33.02,27.91,66.16,19.6
635,Puerto Ayora,11-05-2017,3652764,75,EC,68,-0.74,-90.35,71.6,18.34
636,Katsuura,11-05-2017,2112309,20,JP,58,35.13,140.3,53.6,5.82
637,Yermakovskoye,11-05-2017,1485904,0,RU,66,53.28,92.4,22.11,2.48
638,Lithakia,11-05-2017,258241,75,GR,71,37.72,20.83,55.4,9.64
639,Port-Cartier,11-05-2017,6111696,90,CA,55,50.03,-66.87,35.6,13.87
640,Teriberka,11-05-2017,483379,64,RU,100,69.16,35.15,18.96,7.07
641,Alihe,11-05-2017,2038665,0,CN,69,50.57,123.72,20.44,4.61
642,Punta Arenas,11-05-2017,3874787,0,CL,58,-53.15,-70.92,55.4,11.41
643,Loikaw,11-05-2017,1313479,0,MM,77,19.67,97.21,61.62,2.15
644,Saint-Francois,11-05-2017,2980080,0,FR,93,46.42,3.91,35.6,4.7
645,Hobart,11-05-2017,2163355,40,AU,46,-42.88,147.33,53.6,12.75
646,Yar-Sale,11-05-2017,1486321,44,RU,94,66.83,70.83,30.12,16.69
647,Aura,11-05-2017,660874,92,FI,100,60.62,22.58,48.2,8.05
648,Bredasdorp,11-05-2017,1015776,8,ZA,59,-34.53,20.04,64.4,6.93
649,Kruisfontein,11-05-2017,986717,100,ZA,99,-34.0,24.73,61.17,20.04
650,Coihaique,11-05-2017,3894426,75,CL,42,-45.58,-72.07,63.09,1.12
651,Ponta do Sol,11-05-2017,2264557,75,PT,64,32.67,-17.1,68.0,18.34
652,Rikitea,11-05-2017,4030556,44,PF,100,-23.12,-134.97,74.67,12.55
653,Itumbiara,11-05-2017,3460522,92,BR,98,-18.42,-49.22,68.68,6.73
654,Kidal,11-05-2017,2455290,0,ML,45,18.44,1.41,58.74,5.06
655,Hermanus,11-05-2017,3366880,80,ZA,93,-34.42,19.23,54.6,4.16
656,Belle Fourche,11-05-2017,5762718,1,US,86,44.67,-103.85,32.13,11.41
657,Pontianak,11-05-2017,1630789,20,ID,88,-0.03,109.33,77.0,5.5
658,Valparaiso,11-05-2017,3868626,0,CL,82,-33.04,-71.63,62.4,8.05
659,Mathura,11-05-2017,1263364,0,IN,81,27.5,77.68,61.26,2.71
660,Amparihy,11-05-2017,1078317,75,MG,94,-25.02,46.97,68.0,13.87
661,Busselton,11-05-2017,2075265,0,AU,93,-33.65,115.33,65.71,22.28
662,Saint Anthony,11-05-2017,5044290,90,US,68,45.02,-93.22,30.69,16.11
663,Yumen,11-05-2017,1528998,20,CN,91,40.28,97.2,36.51,10.65
664,Ushuaia,11-05-2017,3833367,0,AR,58,-54.8,-68.3,50.56,12.75
665,New Norfolk,11-05-2017,2155415,40,AU,46,-42.78,147.06,53.6,12.75
666,Ketchikan,11-05-2017,5554428,1,US,33,55.34,-131.65,43.41,4.7
667,Saint-Georges,11-05-2017,6138282,92,CA,80,46.62,-72.66,46.36,10.09
668,Rikitea,11-05-2017,4030556,44,PF,100,-23.12,-134.97,74.67,12.55
669,Mar del Plata,11-05-2017,3430863,0,AR,77,-38.0,-57.56,60.8,3.36
670,Mar del Plata,11-05-2017,3430863,0,AR,77,-38.0,-57.56,60.8,3.36
671,Bam,11-05-2017,141736,0,IR,57,29.11,58.36,47.71,4.61
672,Cape Town,11-05-2017,3369157,0,ZA,77,-33.93,18.42,60.8,28.86
673,Leningradskiy,11-05-2017,2123814,48,RU,97,69.38,178.42,28.18,21.61
674,Barra Patuca,11-05-2017,3614835,68,HN,97,15.8,-84.28,79.71,15.57
675,Cidreira,11-05-2017,3466165,0,BR,78,-30.18,-50.21,60.31,9.08
676,Ushuaia,11-05-2017,3833367,0,AR,58,-54.8,-68.3,50.56,12.75
677,Hithadhoo,11-05-2017,1282256,76,MV,100,-0.6,73.08,76.74,12.44
678,Katsuura,11-05-2017,2112309,20,JP,58,35.13,140.3,53.6,5.82
679,Chuy,11-05-2017,3443061,0,UY,82,-33.7,-53.46,59.46,10.98
680,Mathura,11-05-2017,1263364,0,IN,81,27.5,77.68,61.26,2.71
681,Jamestown,11-05-2017,5122534,90,US,100,42.1,-79.24,56.61,11.41
682,Port Macquarie,11-05-2017,2152659,75,AU,93,-31.43,152.92,66.2,2.24
683,Karwar,11-05-2017,1267635,0,IN,73,14.8,74.13,77.46,4.16
684,Victoria,11-05-2017,6174041,75,CA,41,48.43,-123.37,40.98,6.93
685,Nanortalik,11-05-2017,3421765,0,GL,96,60.14,-45.24,31.92,53.15
686,Albany,11-05-2017,5106834,90,US,81,42.65,-73.76,53.26,14.99
687,Victoria,11-05-2017,6174041,75,CA,41,48.43,-123.37,40.98,6.93
688,Broome,11-05-2017,2075720,40,AU,74,-17.97,122.23,84.2,11.41
689,Rikitea,11-05-2017,4030556,44,PF,100,-23.12,-134.97,74.67,12.55
690,Port Alfred,11-05-2017,964432,44,ZA,98,-33.59,26.89,63.51,16.58
691,Rikitea,11-05-2017,4030556,44,PF,100,-23.12,-134.97,74.67,12.55
692,Hasaki,11-05-2017,2112802,20,JP,87,35.73,140.83,42.01,4.7
693,Kudachi,11-05-2017,1265811,0,IN,84,16.63,74.85,67.78,7.63
694,Saint-Augustin,11-05-2017,6137462,36,CA,100,51.23,-58.65,32.23,17.02
695,Lebu,11-05-2017,3883457,44,CL,95,-37.62,-73.65,56.26,11.43
696,Anadyr,11-05-2017,2127202,90,RU,74,64.75,177.48,35.6,24.61
697,Ushuaia,11-05-2017,3833367,0,AR,58,-54.8,-68.3,50.56,12.75
698,Pemangkat,11-05-2017,1631637,12,ID,95,1.17,108.97,79.12,3.38
699,Awbari,11-05-2017,2219235,0,LY,49,26.59,12.78,45.37,2.71
700,Mahebourg,11-05-2017,934322,40,MU,68,-20.41,57.7,71.6,5.82
701,Gombong,11-05-2017,1643920,12,ID,95,-7.61,109.51,79.57,4.5
702,Ushuaia,11-05-2017,3833367,0,AR,58,-54.8,-68.3,50.56,12.75
703,Rudnik,11-05-2017,1544819,44,RU,71,69.75,61.65,33.36,17.58
704,Katsuura,11-05-2017,2112309,20,JP,58,35.13,140.3,53.6,5.82
705,Yokote,11-05-2017,2110506,75,JP,81,39.3,140.57,47.48,6.93
706,Oriximina,11-05-2017,3393471,0,BR,48,-1.77,-55.87,89.52,6.4
707,Maniitsoq,11-05-2017,3421982,68,GL,100,65.42,-52.9,20.4,16.46
708,East London,11-05-2017,1006984,8,ZA,100,-33.02,27.91,66.16,19.6
709,Rikitea,11-05-2017,4030556,44,PF,100,-23.12,-134.97,74.67,12.55
710,Barenburg,11-05-2017,2952767,0,DE,86,52.62,8.8,41.49,4.7
711,Ancud,11-05-2017,3899695,92,CL,99,-41.87,-73.82,53.74,2.15
712,Horta (Angústias),11-05-2017,8013523,40,PT,82,38.53,-28.64,66.2,6.93
713,Ghatal,11-05-2017,1271346,0,IN,90,22.67,87.72,65.98,2.71
714,Ostrovnoy,11-05-2017,556268,64,RU,92,68.05,39.51,24.58,8.97
715,Thompson,11-05-2017,6165406,90,CA,78,55.74,-97.86,17.6,10.29
716,Shimoda,11-05-2017,1852357,0,JP,100,34.67,138.95,66.84,11.1
717,Busselton,11-05-2017,2075265,0,AU,93,-33.65,115.33,65.71,22.28
718,Vao,11-05-2017,2137773,32,NC,100,-22.67,167.48,73.77,17.81
719,Aflou,11-05-2017,2508737,36,DZ,81,34.11,2.1,47.76,11.65
720,Altamira,11-05-2017,3407882,20,BR,78,-3.2,-52.21,80.6,5.95
721,Puerto Ayora,11-05-2017,3652764,75,EC,68,-0.74,-90.35,71.6,18.34
722,Albany,11-05-2017,5106834,90,US,81,42.65,-73.76,53.26,14.99
723,Iqaluit,11-05-2017,5983720,20,CA,77,63.75,-68.51,3.2,5.82
724,Yulara,11-05-2017,6355222,0,AU,37,-25.24,130.99,71.6,11.41
725,Longyearbyen,11-05-2017,2729907,75,SJ,74,78.22,15.64,28.4,8.05
726,Tres Lagoas,11-05-2017,3446098,92,BR,100,-20.75,-51.68,71.47,2.04
727,Jamestown,11-05-2017,5122534,90,US,100,42.1,-79.24,56.61,11.41
728,Sungairaya,11-05-2017,1625908,0,ID,89,0.7,108.9,78.81,3.49
729,Kapaa,11-05-2017,5848280,40,US,65,22.08,-159.32,80.4,16.11
730,Barrow,11-05-2017,5880054,75,US,92,71.29,-156.79,28.4,6.93
731,Bardiyah,11-05-2017,80509,8,LY,100,31.76,25.09,61.71,0.92
732,Ilulissat,11-05-2017,3423146,8,GL,78,69.22,-51.1,17.6,5.82
733,Port Shepstone,11-05-2017,964406,36,ZA,98,-30.74,30.45,67.47,5.61
734,Iralaya,11-05-2017,3608828,92,HN,98,15.0,-83.23,78.81,11.21
735,Butaritari,11-05-2017,2110227,88,KI,100,3.07,172.79,82.59,14.12
736,Pavilosta,11-05-2017,456827,92,LV,93,56.89,21.19,42.75,6.93
737,Pevek,11-05-2017,2122090,44,RU,75,69.7,170.31,31.69,26.19
738,Port Hedland,11-05-2017,2063042,0,AU,83,-20.32,118.57,80.6,13.87
739,Oparino,11-05-2017,515175,92,RU,92,59.85,48.28,36.69,5.5
740,Hilo,11-05-2017,5855927,90,US,69,19.73,-155.09,72.68,13.87
741,Busselton,11-05-2017,2075265,0,AU,93,-33.65,115.33,65.71,22.28
742,New Norfolk,11-05-2017,2155415,40,AU,46,-42.78,147.06,53.6,12.75
743,Ushuaia,11-05-2017,3833367,0,AR,58,-54.8,-68.3,50.56,12.75
744,Mount Gambier,11-05-2017,2156643,92,AU,69,-37.83,140.77,56.85,9.53
745,Balapur,11-05-2017,1445310,40,IN,93,17.31,78.48,66.2,3.36
746,Fortuna,11-05-2017,5563839,90,US,87,40.6,-124.16,51.15,5.82
747,Kibre Mengist,11-05-2017,333103,100,ET,91,5.88,38.98,58.74,2.15
748,Holalkere,11-05-2017,1269990,88,IN,99,14.03,76.18,69.0,8.63
749,Olinda,11-05-2017,3393536,40,BR,74,-8.01,-34.86,78.8,6.93
750,Gornopravdinsk,11-05-2017,1506268,88,RU,90,60.05,69.9,29.08,10.98
751,Port Blair,11-05-2017,1259385,32,IN,100,11.67,92.75,82.81,14.45
752,Albany,11-05-2017,5106834,90,US,81,42.65,-73.76,53.26,14.99
753,Isangel,11-05-2017,2136825,92,VU,100,-19.55,169.27,77.77,3.71
754,Vaini,11-05-2017,4032243,75,TO,69,-21.2,-175.2,80.6,4.7
755,Faanui,11-05-2017,4034551,80,PF,100,-16.48,-151.75,78.45,6.4
756,Vaini,11-05-2017,4032243,75,TO,69,-21.2,-175.2,80.6,4.7
757,Torbay,11-05-2017,6167817,20,CA,63,47.67,-52.73,28.4,5.82
758,Lebu,11-05-2017,3883457,44,CL,95,-37.62,-73.65,56.26,11.43
759,Khatanga,11-05-2017,2022572,76,RU,62,71.97,102.5,0.69,6.73
760,Mathura,11-05-2017,1263364,0,IN,81,27.5,77.68,61.26,2.71
761,Amparihy,11-05-2017,1078317,75,MG,94,-25.02,46.97,68.0,13.87
762,Tuatapere,11-05-2017,2180815,32,NZ,100,-46.13,167.68,48.97,16.24
763,Grootfontein,11-05-2017,3357114,0,NA,29,-19.57,18.12,64.72,7.74
764,Plettenberg Bay,11-05-2017,964712,48,ZA,100,-34.05,23.37,61.21,18.81
765,Mahebourg,11-05-2017,934322,40,MU,68,-20.41,57.7,71.6,5.82
766,Coquimbo,11-05-2017,3893629,0,CL,77,-29.95,-71.34,60.8,5.82
767,Tsiombe,11-05-2017,1054500,0,MG,88,-25.3,45.48,63.73,8.97
768,Bluff,11-05-2017,2206939,36,NZ,100,-46.6,168.33,51.22,22.84
769,Namatanai,11-05-2017,2090021,56,PG,100,-3.67,152.43,84.39,9.08
770,Tezpur,11-05-2017,1254710,0,IN,80,26.63,92.8,57.21,2.15
771,Mar del Plata,11-05-2017,3430863,0,AR,77,-38.0,-57.56,60.8,3.36
772,Cape Town,11-05-2017,3369157,0,ZA,77,-33.93,18.42,60.8,28.86
773,Hobart,11-05-2017,2163355,40,AU,46,-42.88,147.33,53.6,12.75
774,Port Alfred,11-05-2017,964432,44,ZA,98,-33.59,26.89,63.51,16.58
775,Faanui,11-05-2017,4034551,80,PF,100,-16.48,-151.75,78.45,6.4
776,Vao,11-05-2017,2137773,32,NC,100,-22.67,167.48,73.77,17.81
777,Saint-Philippe,11-05-2017,935215,0,RE,49,-21.36,55.77,68.0,8.05
778,Tual,11-05-2017,1623197,0,ID,100,-5.67,132.75,83.44,10.98
779,Narsaq,11-05-2017,3421719,0,GL,36,60.92,-46.05,30.2,16.11
780,Rikitea,11-05-2017,4030556,44,PF,100,-23.12,-134.97,74.67,12.55
781,Lagoa,11-05-2017,3372964,76,PT,100,39.05,-27.98,67.47,17.13
782,Busselton,11-05-2017,2075265,0,AU,93,-33.65,115.33,65.71,22.28
783,Avarua,11-05-2017,4035715,90,CK,83,-21.21,-159.78,77.0,13.87
784,Butaritari,11-05-2017,2110227,88,KI,100,3.07,172.79,82.59,14.12
785,Busselton,11-05-2017,2075265,0,AU,93,-33.65,115.33,65.71,22.28
786,Bredasdorp,11-05-2017,1015776,8,ZA,59,-34.53,20.04,64.4,6.93
787,Saint George,11-05-2017,5546220,1,US,32,37.1,-113.58,68.0,10.29
788,Ushuaia,11-05-2017,3833367,0,AR,58,-54.8,-68.3,50.56,12.75
789,Cape Town,11-05-2017,3369157,0,ZA,77,-33.93,18.42,60.8,28.86
790,Victoria,11-05-2017,6174041,75,CA,41,48.43,-123.37,40.98,6.93
791,Ponta do Sol,11-05-2017,2264557,75,PT,64,32.67,-17.1,68.0,18.34
792,Narsaq,11-05-2017,3421719,0,GL,36,60.92,-46.05,30.2,16.11
793,Tuatapere,11-05-2017,2180815,32,NZ,100,-46.13,167.68,48.97,16.24
794,Hobart,11-05-2017,2163355,40,AU,46,-42.88,147.33,53.6,12.75
795,Bur Safajah,11-05-2017,358620,0,EG,37,26.73,33.94,68.0,11.41
796,Narsaq,11-05-2017,3421719,0,GL,36,60.92,-46.05,30.2,16.11
797,Nyimba,11-05-2017,900056,0,ZM,29,-14.56,30.81,74.08,7.4
798,Cape Town,11-05-2017,3369157,0,ZA,77,-33.93,18.42,60.8,28.86
799,Xining,11-05-2017,1788852,0,CN,49,36.62,101.77,18.24,1.7
800,Mathura,11-05-2017,1263364,0,IN,81,27.5,77.68,61.26,2.71
801,Jinchang,11-05-2017,1805733,8,CN,69,38.5,102.17,30.79,3.49
802,Puerto Ayora,11-05-2017,3652764,75,EC,68,-0.74,-90.35,71.6,18.34
803,Bambous Virieux,11-05-2017,1106677,40,MU,68,-20.34,57.76,71.6,5.82
804,Ushuaia,11-05-2017,3833367,0,AR,58,-54.8,-68.3,50.56,12.75
805,Soanierana Ivongo,11-05-2017,1056386,92,MG,100,-16.92,49.58,73.18,8.97
806,Victoria,11-05-2017,6174041,75,CA,41,48.43,-123.37,40.98,6.93
807,Tiznit,11-05-2017,2527087,0,MA,78,29.58,-9.5,47.49,2.59
808,Tuatapere,11-05-2017,2180815,32,NZ,100,-46.13,167.68,48.97,16.24
809,Bluff,11-05-2017,2206939,36,NZ,100,-46.6,168.33,51.22,22.84
810,Dazhou,11-05-2017,1813325,0,CN,82,31.22,107.5,49.69,2.59
811,Ostrovnoy,11-05-2017,556268,64,RU,92,68.05,39.51,24.58,8.97
812,Souillac,11-05-2017,933995,40,MU,68,-20.52,57.52,71.6,5.82
813,Bethel,11-05-2017,5282297,90,US,93,41.37,-73.41,55.4,3.36
814,Atuona,11-05-2017,4020109,56,PF,100,-9.8,-139.03,80.29,13.0
815,Rikitea,11-05-2017,4030556,44,PF,100,-23.12,-134.97,74.67,12.55
816,Ushuaia,11-05-2017,3833367,0,AR,58,-54.8,-68.3,50.56,12.75
817,Bilibino,11-05-2017,2126682,92,RU,66,68.05,166.44,33.67,10.65
818,Powiat d?bicki,11-05-2017,7530769,0,PL,66,50.0,21.35,48.2,8.05
819,Malayer,11-05-2017,125185,20,IR,81,34.3,48.82,44.6,2.24
820,Ushuaia,11-05-2017,3833367,0,AR,58,-54.8,-68.3,50.56,12.75
821,Vaini,11-05-2017,4032243,75,TO,69,-21.2,-175.2,80.6,4.7
822,Antofagasta,11-05-2017,3899539,75,CL,67,-23.65,-70.4,60.8,11.41
823,Ilulissat,11-05-2017,3423146,8,GL,78,69.22,-51.1,17.6,5.82
824,Khatanga,11-05-2017,2022572,76,RU,62,71.97,102.5,0.69,6.73
825,Carnarvon,11-05-2017,2074865,0,AU,88,-24.87,113.63,74.22,11.77
826,Avarua,11-05-2017,4035715,90,CK,83,-21.21,-159.78,77.0,13.87
827,Black River,11-05-2017,3491355,40,JM,74,18.03,-77.85,80.6,3.36
828,Alofi,11-05-2017,4036284,48,NU,69,-19.06,-169.92,80.6,14.99
829,Horta (Angústias),11-05-2017,8013523,40,PT,82,38.53,-28.64,66.2,6.93
830,Alofi,11-05-2017,4036284,48,NU,69,-19.06,-169.92,80.6,14.99
831,Albany,11-05-2017,5106834,90,US,81,42.65,-73.76,53.26,14.99
832,Yellowknife,11-05-2017,6185377,75,CA,61,62.46,-114.35,12.2,8.05
833,Saint George,11-05-2017,5546220,1,US,32,37.1,-113.58,68.0,10.29
834,Barrow,11-05-2017,5880054,75,US,92,71.29,-156.79,28.4,6.93
835,Upernavik,11-05-2017,3418910,68,GL,100,72.79,-56.15,19.09,28.66
836,Mathura,11-05-2017,1263364,0,IN,81,27.5,77.68,61.26,2.71
837,Krasnyy Bor,11-05-2017,541826,75,RU,93,59.68,30.67,41.0,6.71
838,Ponta do Sol,11-05-2017,2264557,75,PT,64,32.67,-17.1,68.0,18.34
839,Jensen Beach,11-05-2017,4160171,75,US,100,27.25,-80.23,76.33,3.36
840,Ayan,11-05-2017,2027316,0,RU,100,56.45,138.17,11.89,24.74
841,Mayya,11-05-2017,2020121,0,RU,74,61.73,130.28,-22.01,2.24
842,Mount Isa,11-05-2017,2065594,0,AU,40,-20.73,139.5,87.8,9.17
843,Carnarvon,11-05-2017,2074865,0,AU,88,-24.87,113.63,74.22,11.77
844,Vaini,11-05-2017,4032243,75,TO,69,-21.2,-175.2,80.6,4.7
845,Mathura,11-05-2017,1263364,0,IN,81,27.5,77.68,61.26,2.71
846,Tiksi,11-05-2017,2015306,44,RU,74,71.69,128.87,-24.97,3.38
847,Kapaa,11-05-2017,5848280,40,US,65,22.08,-159.32,80.4,16.11
848,Rikitea,11-05-2017,4030556,44,PF,100,-23.12,-134.97,74.67,12.55
849,Dingle,11-05-2017,1714733,44,PH,90,11.0,122.67,81.19,3.71
850,Hermanus,11-05-2017,3366880,80,ZA,93,-34.42,19.23,54.6,4.16
851,Port Alfred,11-05-2017,964432,44,ZA,98,-33.59,26.89,63.51,16.58
852,Dingle,11-05-2017,1714733,44,PH,90,11.0,122.67,81.19,3.71
853,Mathura,11-05-2017,1263364,0,IN,81,27.5,77.68,61.26,2.71
854,Djibouti,11-05-2017,223817,56,DJ,100,11.59,43.14,73.14,3.15
855,Kamina,11-05-2017,214614,8,CD,82,-8.74,24.99,65.76,2.71
856,Sosua,11-05-2017,3492627,75,DO,78,19.77,-70.52,82.4,8.05
857,Ristiina,11-05-2017,639248,90,FI,100,61.5,27.27,42.8,5.82
858,Isangel,11-05-2017,2136825,92,VU,100,-19.55,169.27,77.77,3.71
859,Vao,11-05-2017,2137773,32,NC,100,-22.67,167.48,73.77,17.81
860,Atocha,11-05-2017,3923570,64,BO,25,-20.93,-66.23,42.76,2.93
861,Barra Patuca,11-05-2017,3614835,68,HN,97,15.8,-84.28,79.71,15.57
862,Hermanus,11-05-2017,3366880,80,ZA,93,-34.42,19.23,54.6,4.16
863,Yellowknife,11-05-2017,6185377,75,CA,61,62.46,-114.35,12.2,8.05
864,Saskylakh,11-05-2017,2017155,64,RU,37,71.92,114.08,-2.92,5.5
865,Amparihy,11-05-2017,1078317,75,MG,94,-25.02,46.97,68.0,13.87
866,Hermanus,11-05-2017,3366880,80,ZA,93,-34.42,19.23,54.6,4.16
867,Rikitea,11-05-2017,4030556,44,PF,100,-23.12,-134.97,74.67,12.55
868,Punta Arenas,11-05-2017,3874787,0,CL,58,-53.15,-70.92,55.4,11.41
869,Bredasdorp,11-05-2017,1015776,8,ZA,59,-34.53,20.04,64.4,6.93
870,Kodiak,11-05-2017,5866583,90,US,86,57.79,-152.41,39.2,12.75
871,High Rock,11-05-2017,3572189,40,BS,83,26.62,-78.28,78.8,8.08
872,Svetlogorsk,11-05-2017,10722858,64,BY,98,52.63,29.73,41.14,10.98
873,Barenburg,11-05-2017,2952767,0,DE,86,52.62,8.8,41.49,4.7
874,Vaini,11-05-2017,4032243,75,TO,69,-21.2,-175.2,80.6,4.7
875,Barrow,11-05-2017,5880054,75,US,92,71.29,-156.79,28.4,6.93
876,Cabo San Lucas,11-05-2017,3985710,20,MX,45,22.89,-109.91,86.0,12.75
877,Butaritari,11-05-2017,2110227,88,KI,100,3.07,172.79,82.59,14.12
878,Rikitea,11-05-2017,4030556,44,PF,100,-23.12,-134.97,74.67,12.55
879,Mar del Plata,11-05-2017,3430863,0,AR,77,-38.0,-57.56,60.8,3.36
880,Albany,11-05-2017,5106834,90,US,81,42.65,-73.76,53.26,14.99
881,Thomasville,11-05-2017,4494942,90,US,93,35.88,-80.08,61.3,9.17
882,Rikitea,11-05-2017,4030556,44,PF,100,-23.12,-134.97,74.67,12.55
883,Ust-Nera,11-05-2017,2120048,88,RU,98,64.57,143.2,-11.56,2.48
884,Hilo,11-05-2017,5855927,90,US,69,19.73,-155.09,72.68,13.87
885,Dikson,11-05-2017,1507390,80,RU,100,73.51,80.55,22.56,17.81
886,Hilo,11-05-2017,5855927,90,US,69,19.73,-155.09,72.68,13.87
887,Ilo,11-05-2017,3938415,20,PE,100,-17.64,-71.34,56.49,3.04
888,Carnarvon,11-05-2017,2074865,0,AU,88,-24.87,113.63,74.22,11.77
889,Lasa,11-05-2017,3175096,90,IT,80,46.62,10.7,32.54,10.29
890,Puerto Gaitan,11-05-2017,3769976,80,CO,82,4.31,-72.08,77.19,5.73
891,Mar del Plata,11-05-2017,3430863,0,AR,77,-38.0,-57.56,60.8,3.36
892,Kieta,11-05-2017,2094027,64,PG,100,-6.22,155.63,79.71,3.71
893,Tuktoyaktuk,11-05-2017,6170031,90,CA,85,69.45,-133.04,14.0,10.29
894,East London,11-05-2017,1006984,8,ZA,100,-33.02,27.91,66.16,19.6
895,Pangody,11-05-2017,1495626,88,RU,89,65.85,74.49,29.71,13.22
896,Tutoia,11-05-2017,3385899,0,BR,69,-2.76,-42.27,82.4,19.46
897,Hasaki,11-05-2017,2112802,20,JP,87,35.73,140.83,42.01,4.7
898,Qaanaaq,11-05-2017,3831208,8,GL,100,77.48,-69.36,-6.74,8.08
899,Waris Aliganj,11-05-2017,1252930,0,IN,75,25.02,85.63,65.98,2.71
900,Ushuaia,11-05-2017,3833367,0,AR,58,-54.8,-68.3,50.56,12.75
901,Busselton,11-05-2017,2075265,0,AU,93,-33.65,115.33,65.71,22.28
902,Mathura,11-05-2017,1263364,0,IN,81,27.5,77.68,61.26,2.71
903,Cotoca,11-05-2017,3918937,75,BO,78,-17.82,-63.05,73.4,6.93
904,Paso de Carrasco,11-05-2017,3441292,0,UY,63,-34.86,-56.05,66.2,10.29
905,El Trompillo,11-05-2017,7020913,75,BO,78,-17.8,-63.17,73.4,6.93
906,Bluff,11-05-2017,2206939,36,NZ,100,-46.6,168.33,51.22,22.84
907,Ushuaia,11-05-2017,3833367,0,AR,58,-54.8,-68.3,50.56,12.75
908,Rikitea,11-05-2017,4030556,44,PF,100,-23.12,-134.97,74.67,12.55
909,Waddan,11-05-2017,2209055,0,LY,65,29.16,16.14,48.52,2.48
910,Lorengau,11-05-2017,2092164,56,PG,100,-2.02,147.27,83.76,6.96
911,Bambous Virieux,11-05-2017,1106677,40,MU,68,-20.34,57.76,71.6,5.82
912,Polyarnyy,11-05-2017,506763,75,RU,100,69.2,33.45,32.0,4.5
913,Ushuaia,11-05-2017,3833367,0,AR,58,-54.8,-68.3,50.56,12.75
914,Harper,11-05-2017,2276492,76,LR,100,4.38,-7.72,77.82,6.17
915,Barenburg,11-05-2017,2952767,0,DE,86,52.62,8.8,41.49,4.7
916,Rikitea,11-05-2017,4030556,44,PF,100,-23.12,-134.97,74.67,12.55
917,Isangel,11-05-2017,2136825,92,VU,100,-19.55,169.27,77.77,3.71
918,Terrace Bay,11-05-2017,6162951,90,CA,100,48.78,-87.1,32.0,8.05
919,Kavaratti,11-05-2017,1267390,20,IN,100,10.57,72.64,79.84,3.38
920,Chernyshevskiy,11-05-2017,2025456,68,RU,100,63.01,112.47,4.69,6.06
921,Rikitea,11-05-2017,4030556,44,PF,100,-23.12,-134.97,74.67,12.55
922,Butaritari,11-05-2017,2110227,88,KI,100,3.07,172.79,82.59,14.12
923,Albany,11-05-2017,5106834,90,US,81,42.65,-73.76,53.26,14.99
924,Ypsonas,11-05-2017,145952,20,CY,82,34.69,32.96,58.05,3.36
925,Bluff,11-05-2017,2206939,36,NZ,100,-46.6,168.33,51.22,22.84
926,Castro,11-05-2017,3466704,76,BR,90,-24.79,-50.01,57.34,12.21
927,Cabo San Lucas,11-05-2017,3985710,20,MX,45,22.89,-109.91,86.0,12.75
928,Chokurdakh,11-05-2017,2126123,68,RU,84,70.63,147.92,20.76,6.17
929,Massakory,11-05-2017,2428228,0,TD,34,13.0,15.73,67.56,9.53
930,Thinadhoo,11-05-2017,1337610,64,MV,100,0.53,72.93,80.38,12.55
931,Albany,11-05-2017,5106834,90,US,81,42.65,-73.76,53.26,14.99
932,Meulaboh,11-05-2017,1214488,8,ID,100,4.14,96.13,77.68,5.61
933,Katsuura,11-05-2017,2112309,20,JP,58,35.13,140.3,53.6,5.82
934,Atuona,11-05-2017,4020109,56,PF,100,-9.8,-139.03,80.29,13.0
935,Yellowknife,11-05-2017,6185377,75,CA,61,62.46,-114.35,12.2,8.05
936,Amparihy,11-05-2017,1078317,75,MG,94,-25.02,46.97,68.0,13.87
937,Busselton,11-05-2017,2075265,0,AU,93,-33.65,115.33,65.71,22.28
938,Ostrovnoy,11-05-2017,556268,64,RU,92,68.05,39.51,24.58,8.97
939,Arraial do Cabo,11-05-2017,3471451,92,BR,100,-22.97,-42.03,71.61,13.0
940,Horta (Angústias),11-05-2017,8013523,40,PT,82,38.53,-28.64,66.2,6.93
941,Georgetown,11-05-2017,3378644,20,GY,83,6.8,-58.16,80.6,9.17
942,Ponta do Sol,11-05-2017,2264557,75,PT,64,32.67,-17.1,68.0,18.34
943,Crowley,11-05-2017,4321310,75,US,88,30.21,-92.37,79.83,9.17
944,Saint-Philippe,11-05-2017,935215,0,RE,49,-21.36,55.77,68.0,8.05
945,Mathura,11-05-2017,1263364,0,IN,81,27.5,77.68,61.26,2.71
946,Cabo San Lucas,11-05-2017,3985710,20,MX,45,22.89,-109.91,86.0,12.75
947,Lompoc,11-05-2017,5367788,1,US,51,34.64,-120.46,63.59,11.41
948,Maldonado,11-05-2017,3441894,0,UY,63,-34.9,-54.95,64.4,6.93
949,Boa Vista,11-05-2017,3664980,40,BR,52,2.82,-60.67,89.6,4.7
950,Trinidad,11-05-2017,3534915,20,CU,74,21.8,-79.98,82.4,3.36
951,Makubetsu,11-05-2017,2129324,0,JP,96,45.37,141.82,50.59,28.21
952,Dikson,11-05-2017,1507390,80,RU,100,73.51,80.55,22.56,17.81
953,Kruisfontein,11-05-2017,986717,100,ZA,99,-34.0,24.73,61.17,20.04
954,Mathura,11-05-2017,1263364,0,IN,81,27.5,77.68,61.26,2.71
955,Gibson,11-05-2017,4197055,1,US,77,33.23,-82.6,72.09,3.71
956,Albany,11-05-2017,5106834,90,US,81,42.65,-73.76,53.26,14.99
957,Prosperidad,11-05-2017,1692746,64,PH,100,10.52,123.31,81.06,5.5
958,Cape Town,11-05-2017,3369157,0,ZA,77,-33.93,18.42,60.8,28.86
959,Severo-Kurilsk,11-05-2017,2121385,80,RU,100,50.68,156.12,34.26,17.02
960,Bethel,11-05-2017,5282297,90,US,93,41.37,-73.41,55.4,3.36
961,Castro,11-05-2017,3466704,76,BR,90,-24.79,-50.01,57.34,12.21
962,Beira,11-05-2017,1052373,0,MZ,73,-19.84,34.84,73.4,4.7
963,Saint-Louis,11-05-2017,2246452,0,SN,94,16.02,-16.49,77.0,2.24
964,Kapaa,11-05-2017,5848280,40,US,65,22.08,-159.32,80.4,16.11
965,Yerbogachen,11-05-2017,2012956,68,RU,76,61.28,108.01,21.57,6.06
966,Hays,11-05-2017,4272782,1,US,78,38.88,-99.33,50.0,10.29
967,Cape Town,11-05-2017,3369157,0,ZA,77,-33.93,18.42,60.8,28.86
968,Mar del Plata,11-05-2017,3430863,0,AR,77,-38.0,-57.56,60.8,3.36
969,Rikitea,11-05-2017,4030556,44,PF,100,-23.12,-134.97,74.67,12.55
970,Ak-Dovurak,11-05-2017,1512064,0,RU,40,51.18,90.6,7.35,2.04
971,Varnek,11-05-2017,1487762,8,RU,81,69.71,60.05,34.35,21.72
972,Busselton,11-05-2017,2075265,0,AU,93,-33.65,115.33,65.71,22.28
973,Saskylakh,11-05-2017,2017155,64,RU,37,71.92,114.08,-2.92,5.5
974,Bengkulu,11-05-2017,1649150,8,ID,100,-3.8,102.27,78.67,4.5
975,Kapaa,11-05-2017,5848280,40,US,65,22.08,-159.32,80.4,16.11
976,Avarua,11-05-2017,4035715,90,CK,83,-21.21,-159.78,77.0,13.87
977,Kandrian,11-05-2017,2094746,48,PG,89,-6.22,149.55,81.6,3.6
978,Barrow,11-05-2017,5880054,75,US,92,71.29,-156.79,28.4,6.93
979,Kysyl-Syr,11-05-2017,2021017,0,RU,64,63.9,122.76,-22.13,6.51
980,Christchurch,11-05-2017,2192362,0,NZ,41,-43.53,172.63,59.0,10.29
981,Tuburan,11-05-2017,1681079,75,PH,88,6.64,122.27,78.8,10.54
982,Rikitea,11-05-2017,4030556,44,PF,100,-23.12,-134.97,74.67,12.55
983,Albany,11-05-2017,5106834,90,US,81,42.65,-73.76,53.26,14.99
984,Tuatapere,11-05-2017,2180815,32,NZ,100,-46.13,167.68,48.97,16.24
985,Kazuno,11-05-2017,2130146,75,JP,93,40.18,140.79,51.8,11.41
986,Alofi,11-05-2017,4036284,48,NU,69,-19.06,-169.92,80.6,14.99
987,Castro,11-05-2017,3466704,76,BR,90,-24.79,-50.01,57.34,12.21
988,New Norfolk,11-05-2017,2155415,40,AU,46,-42.78,147.06,53.6,12.75
989,Hithadhoo,11-05-2017,1282256,76,MV,100,-0.6,73.08,76.74,12.44
990,Thinadhoo,11-05-2017,1337610,64,MV,100,0.53,72.93,80.38,12.55
991,Bambous Virieux,11-05-2017,1106677,40,MU,68,-20.34,57.76,71.6,5.82
992,Arraial do Cabo,11-05-2017,3471451,92,BR,100,-22.97,-42.03,71.61,13.0
993,Porto Santo,11-05-2017,8010683,40,PT,68,33.07,-16.34,68.0,20.8
994,Gurupi,11-05-2017,3461724,0,BR,91,-11.73,-49.07,71.11,4.61
995,Bethel,11-05-2017,5282297,90,US,93,41.37,-73.41,55.4,3.36
996,Ushuaia,11-05-2017,3833367,0,AR,58,-54.8,-68.3,50.56,12.75
997,Hay River,11-05-2017,5972762,90,CA,62,60.82,-115.8,19.4,6.93
998,Teekkarikylae,11-05-2017,6691859,75,FI,100,60.19,24.84,44.6,14.99
999,Lohja,11-05-2017,647751,75,FI,100,60.25,24.07,44.6,14.99
1000,Ushuaia,11-05-2017,3833367,0,AR,58,-54.8,-68.3,50.56,12.75
1001,Niceville,11-05-2017,4165995,20,US,65,30.52,-86.48,78.28,8.05
1002,Ushuaia,11-05-2017,3833367,0,AR,58,-54.8,-68.3,50.56,12.75
1003,Solnechnyy,11-05-2017,2016307,0,RU,66,50.72,136.63,26.29,5.95
1004,Ushuaia,11-05-2017,3833367,0,AR,58,-54.8,-68.3,50.56,12.75
1005,Kampot,11-05-2017,1831112,68,KH,87,10.62,104.18,73.41,8.19
1006,Diffa,11-05-2017,2445704,0,NE,39,13.32,12.61,61.84,5.61
1007,Breda,11-05-2017,2758401,20,NL,100,51.59,4.78,39.88,3.36
1008,Rikitea,11-05-2017,4030556,44,PF,100,-23.12,-134.97,74.67,12.55
1009,San Juan,11-05-2017,3929520,0,PE,97,-15.37,-75.16,59.55,10.2
1010,Aura,11-05-2017,660874,92,FI,100,60.62,22.58,48.2,8.05
1011,Hilo,11-05-2017,5855927,90,US,69,19.73,-155.09,72.68,13.87
1012,Husavik,11-05-2017,2629833,75,IS,74,66.04,-17.34,33.8,23.04
1013,Mercedes,11-05-2017,3430708,100,AR,39,-34.65,-59.43,69.27,8.97
1014,Cape Town,11-05-2017,3369157,0,ZA,77,-33.93,18.42,60.8,28.86
1015,Port Alfred,11-05-2017,964432,44,ZA,98,-33.59,26.89,63.51,16.58
1016,Seoul,11-05-2017,1835848,75,KR,66,37.57,126.98,46.04,5.82
1017,Busselton,11-05-2017,2075265,0,AU,93,-33.65,115.33,65.71,22.28
1018,Buala,11-05-2017,2109528,92,SB,84,-8.14,159.59,86.23,4.16
1019,Busselton,11-05-2017,2075265,0,AU,93,-33.65,115.33,65.71,22.28
1020,Longyearbyen,11-05-2017,2729907,75,SJ,74,78.22,15.64,28.4,8.05
1021,Rikitea,11-05-2017,4030556,44,PF,100,-23.12,-134.97,74.67,12.55
1022,Baisha,11-05-2017,1817446,68,CN,62,26.52,110.93,49.33,1.14
1023,Nago,11-05-2017,1856068,40,JP,69,26.59,127.98,74.17,12.75
1024,Bluff,11-05-2017,2206939,36,NZ,100,-46.6,168.33,51.22,22.84
1025,Jamestown,11-05-2017,5122534,90,US,100,42.1,-79.24,56.61,11.41
1026,Krasnyy Bor,11-05-2017,541826,75,RU,93,59.68,30.67,41.0,6.71
1027,Dalton,11-05-2017,1012080,92,ZA,94,-29.34,30.63,63.24,2.71
1028,Yellowknife,11-05-2017,6185377,75,CA,61,62.46,-114.35,12.2,8.05
1029,Polis,11-05-2017,146137,40,CY,77,35.04,32.43,59.0,5.82
1030,Butaritari,11-05-2017,2110227,88,KI,100,3.07,172.79,82.59,14.12
1031,Ushuaia,11-05-2017,3833367,0,AR,58,-54.8,-68.3,50.56,12.75
1032,Bluff,11-05-2017,2206939,36,NZ,100,-46.6,168.33,51.22,22.84
1033,Atuona,11-05-2017,4020109,56,PF,100,-9.8,-139.03,80.29,13.0
1034,Avarua,11-05-2017,4035715,90,CK,83,-21.21,-159.78,77.0,13.87
1035,Bredasdorp,11-05-2017,1015776,8,ZA,59,-34.53,20.04,64.4,6.93
1036,Plettenberg Bay,11-05-2017,964712,48,ZA,100,-34.05,23.37,61.21,18.81
1037,Sar-e Pul,11-05-2017,1127110,32,AF,86,36.22,65.93,34.62,0.36
1038,Harper,11-05-2017,2276492,76,LR,100,4.38,-7.72,77.82,6.17
1039,Balclutha,11-05-2017,2208248,76,NZ,58,-46.23,169.75,52.8,20.6
1040,Gryazovets,11-05-2017,558236,92,RU,95,58.88,40.25,36.51,11.1
1041,Ushuaia,11-05-2017,3833367,0,AR,58,-54.8,-68.3,50.56,12.75
1042,Hithadhoo,11-05-2017,1282256,76,MV,100,-0.6,73.08,76.74,12.44
1043,Gurgaon,11-05-2017,1270642,0,IN,77,28.47,77.03,68.0,2.71
1044,Busselton,11-05-2017,2075265,0,AU,93,-33.65,115.33,65.71,22.28
1045,Great Bend,11-05-2017,4272340,1,US,57,38.36,-98.76,50.0,11.41
1046,Avarua,11-05-2017,4035715,90,CK,83,-21.21,-159.78,77.0,13.87
1047,Tuktoyaktuk,11-05-2017,6170031,90,CA,85,69.45,-133.04,14.0,10.29
1048,Saint-Philippe,11-05-2017,935215,0,RE,49,-21.36,55.77,68.0,8.05
1049,Carnarvon,11-05-2017,2074865,0,AU,88,-24.87,113.63,74.22,11.77
1050,Buala,11-05-2017,2109528,92,SB,84,-8.14,159.59,86.23,4.16
1051,Busselton,11-05-2017,2075265,0,AU,93,-33.65,115.33,65.71,22.28
1052,Jinhua,11-05-2017,2045485,8,CN,91,41.43,128.03,34.35,3.94
1053,Ahipara,11-05-2017,2194098,68,NZ,82,-35.17,173.17,61.93,13.67
1054,Mar del Plata,11-05-2017,3430863,0,AR,77,-38.0,-57.56,60.8,3.36
1055,Aklavik,11-05-2017,5882953,90,CA,85,68.22,-135.01,15.8,2.24
1056,Bathsheba,11-05-2017,3374083,40,BB,88,13.22,-59.52,80.6,14.99
1057,College,11-05-2017,5859699,90,US,86,64.86,-147.8,26.6,5.82
1058,Verkhnevilyuysk,11-05-2017,2013639,8,RU,37,63.45,120.32,-24.79,5.73
1059,Hermanus,11-05-2017,3366880,80,ZA,93,-34.42,19.23,54.6,4.16
1060,Rikitea,11-05-2017,4030556,44,PF,100,-23.12,-134.97,74.67,12.55
1061,Broome,11-05-2017,2075720,40,AU,74,-17.97,122.23,84.2,11.41
1062,Espoo,11-05-2017,660158,75,FI,100,60.21,24.65,44.6,14.99
1063,Cape Town,11-05-2017,3369157,0,ZA,77,-33.93,18.42,60.8,28.86
1064,Bilma,11-05-2017,2446796,0,NE,37,18.69,12.92,52.93,5.06
1065,Butaritari,11-05-2017,2110227,88,KI,100,3.07,172.79,82.59,14.12
1066,Loei,11-05-2017,1609071,92,TH,96,17.49,101.73,65.22,2.48
1067,Yellowknife,11-05-2017,6185377,75,CA,61,62.46,-114.35,12.2,8.05
1068,Faanui,11-05-2017,4034551,80,PF,100,-16.48,-151.75,78.45,6.4
1069,Nizhnekamsk,11-05-2017,521118,90,RU,92,55.64,51.82,30.2,6.71
1070,Kirakira,11-05-2017,2178753,68,SB,100,-10.45,161.92,82.05,6.17
1071,Avarua,11-05-2017,4035715,90,CK,83,-21.21,-159.78,77.0,13.87
1072,Parana,11-05-2017,3841956,0,AR,47,-31.73,-60.52,67.87,9.53
1073,Kloulklubed,11-05-2017,7671223,90,PW,88,7.04,134.26,80.6,6.73
1074,Tsiombe,11-05-2017,1054500,0,MG,88,-25.3,45.48,63.73,8.97
1075,Predivinsk,11-05-2017,1494237,76,RU,71,57.07,93.44,27.06,7.4
1076,Rudnik,11-05-2017,1544819,44,RU,71,69.75,61.65,33.36,17.58
1077,Tutoia,11-05-2017,3385899,0,BR,69,-2.76,-42.27,82.4,19.46
1078,Hamilton,11-05-2017,5969785,90,CA,100,43.23,-79.95,59.02,18.34
1079,Krasnoyarsk,11-05-2017,1502026,40,RU,86,56.01,92.79,28.4,4.47
1080,Pacific Grove,11-05-2017,5380437,1,US,38,36.62,-121.92,59.72,8.05
1081,Port Lincoln,11-05-2017,2063036,68,AU,94,-34.73,135.87,59.41,22.17
1082,Florida,11-05-2017,4155751,1,US,69,28.75,-82.5,77.77,8.52
1083,Tuktoyaktuk,11-05-2017,6170031,90,CA,85,69.45,-133.04,14.0,10.29
1084,Tuktoyaktuk,11-05-2017,6170031,90,CA,85,69.45,-133.04,14.0,10.29
1085,Lata,11-05-2017,2738381,0,PT,81,40.16,-8.33,53.6,3.36
1086,Ushuaia,11-05-2017,3833367,0,AR,58,-54.8,-68.3,50.56,12.75
1087,Ushuaia,11-05-2017,3833367,0,AR,58,-54.8,-68.3,50.56,12.75
1088,Espoo,11-05-2017,660158,75,FI,100,60.21,24.65,44.6,14.99
1089,Tolaga Bay,11-05-2017,2180991,76,NZ,52,-38.37,178.3,64.63,4.05
1090,Neiafu,11-05-2017,4032420,75,TO,74,-18.65,-173.98,80.6,9.17
1091,Todos Santos,11-05-2017,3981432,20,MX,45,23.45,-110.22,86.0,12.75
1092,Lebu,11-05-2017,3883457,44,CL,95,-37.62,-73.65,56.26,11.43
1093,Luba,11-05-2017,2309528,20,GQ,88,3.46,8.55,75.2,3.36
1094,Koror State,11-05-2017,1559446,90,PW,88,7.34,134.47,80.6,6.73
1095,Avarua,11-05-2017,4035715,90,CK,83,-21.21,-159.78,77.0,13.87
1096,General Pico,11-05-2017,3855075,92,AR,57,-35.66,-63.76,67.42,14.23
1097,Tabas,11-05-2017,113659,0,IR,72,33.6,56.92,50.41,2.71
1098,Wanning,11-05-2017,1791779,92,CN,100,18.8,110.4,74.67,23.06
1099,New Norfolk,11-05-2017,2155415,40,AU,46,-42.78,147.06,53.6,12.75
1100,Muros,11-05-2017,3115824,40,ES,93,42.78,-9.06,48.2,2.24
1101,Mehamn,11-05-2017,778707,0,NO,86,71.04,27.85,34.21,6.93
1102,Hermanus,11-05-2017,3366880,80,ZA,93,-34.42,19.23,54.6,4.16
1103,Tabou,11-05-2017,2281120,80,CI,100,4.42,-7.35,77.77,7.52
1104,Pevek,11-05-2017,2122090,44,RU,75,69.7,170.31,31.69,26.19
1105,Vanimo,11-05-2017,2084442,24,PG,100,-2.67,141.3,84.75,12.1
1106,Hithadhoo,11-05-2017,1282256,76,MV,100,-0.6,73.08,76.74,12.44
1107,Maldonado,11-05-2017,3441894,0,UY,63,-34.9,-54.95,64.4,6.93
1108,Rocha,11-05-2017,3440777,0,UY,50,-34.48,-54.33,64.41,8.63
1109,Lorengau,11-05-2017,2092164,56,PG,100,-2.02,147.27,83.76,6.96
1110,Reconquista,11-05-2017,3429594,0,AR,59,-29.15,-59.65,68.77,12.77
1111,Albany,11-05-2017,5106834,90,US,81,42.65,-73.76,53.26,14.99
1112,Ushuaia,11-05-2017,3833367,0,AR,58,-54.8,-68.3,50.56,12.75
1113,Tuktoyaktuk,11-05-2017,6170031,90,CA,85,69.45,-133.04,14.0,10.29
1114,Marsh Harbour,11-05-2017,3571913,92,BS,100,26.54,-77.06,76.33,8.97
1115,Garoowe,11-05-2017,58933,24,SO,82,8.41,48.48,66.66,8.08
1116,Hentiesbaai,11-05-2017,3356832,36,NA,96,-22.12,14.28,62.16,4.72
1117,Hilo,11-05-2017,5855927,90,US,69,19.73,-155.09,72.68,13.87
1118,Vestmannaeyjar,11-05-2017,3412093,0,IS,83,63.44,-20.27,45.73,10.98
1119,Ribeira Grande,11-05-2017,3372707,40,PT,82,38.52,-28.7,66.2,6.93
1120,Klaksvik,11-05-2017,2618795,68,FO,80,62.23,-6.59,30.2,16.24
1121,Qaanaaq,11-05-2017,3831208,8,GL,100,77.48,-69.36,-6.74,8.08
1122,Bredasdorp,11-05-2017,1015776,8,ZA,59,-34.53,20.04,64.4,6.93
1123,Nanortalik,11-05-2017,3421765,0,GL,96,60.14,-45.24,31.92,53.15
1124,Carnarvon,11-05-2017,2074865,0,AU,88,-24.87,113.63,74.22,11.77
1125,Ushuaia,11-05-2017,3833367,0,AR,58,-54.8,-68.3,50.56,12.75
1126,Butaritari,11-05-2017,2110227,88,KI,100,3.07,172.79,82.59,14.12
1127,Polovinnoye,11-05-2017,1494523,0,RU,88,54.79,65.99,19.95,10.98
1128,Saryshaghan,11-05-2017,1519563,0,KZ,100,46.12,73.62,36.96,6.51
1129,Cidreira,11-05-2017,3466165,0,BR,78,-30.18,-50.21,60.31,9.08
1130,Riyadh,11-05-2017,108410,0,SA,30,24.69,46.72,69.8,3.36
1131,Coffs Harbour,11-05-2017,2171085,100,AU,57,-30.3,153.13,77.0,21.92
1132,San Juan,11-05-2017,3929520,0,PE,97,-15.37,-75.16,59.55,10.2
1133,Luderitz,11-05-2017,3355672,32,NA,76,-26.65,15.16,60.45,18.48
1134,Tuktoyaktuk,11-05-2017,6170031,90,CA,85,69.45,-133.04,14.0,10.29
1135,Albany,11-05-2017,5106834,90,US,81,42.65,-73.76,53.26,14.99
1136,Ushuaia,11-05-2017,3833367,0,AR,58,-54.8,-68.3,50.56,12.75
1137,Deltona,11-05-2017,4153146,75,US,100,28.9,-81.26,77.38,5.82
1138,Tuktoyaktuk,11-05-2017,6170031,90,CA,85,69.45,-133.04,14.0,10.29
1139,Barenburg,11-05-2017,2952767,0,DE,86,52.62,8.8,41.49,4.7
1140,Pevek,11-05-2017,2122090,44,RU,75,69.7,170.31,31.69,26.19
1141,Antsohihy,11-05-2017,1068971,0,MG,69,-14.88,47.99,72.82,11.65
1142,Itanhaem,11-05-2017,3460791,90,BR,88,-24.18,-46.79,66.09,11.41
1143,Roma,11-05-2017,3169070,20,IT,87,41.89,12.48,60.22,3.36
1144,Yellowknife,11-05-2017,6185377,75,CA,61,62.46,-114.35,12.2,8.05
1145,Petropavlovsk-Kamchatskiy,11-05-2017,2122104,0,RU,67,53.05,158.65,19.4,11.18
1146,Mahebourg,11-05-2017,934322,40,MU,68,-20.41,57.7,71.6,5.82
1147,Busselton,11-05-2017,2075265,0,AU,93,-33.65,115.33,65.71,22.28
1148,Ushuaia,11-05-2017,3833367,0,AR,58,-54.8,-68.3,50.56,12.75
1149,Millinocket,11-05-2017,4972220,90,US,87,45.66,-68.71,40.55,4.7
1150,Vaini,11-05-2017,4032243,75,TO,69,-21.2,-175.2,80.6,4.7
1151,Khatanga,11-05-2017,2022572,76,RU,62,71.97,102.5,0.69,6.73
1152,Albany,11-05-2017,5106834,90,US,81,42.65,-73.76,53.26,14.99
1153,Western Province,11-05-2017,896140,0,ZM,36,-15.0,24.0,69.31,6.96
1154,Tsiombe,11-05-2017,1054500,0,MG,88,-25.3,45.48,63.73,8.97
1155,Puerto Ayora,11-05-2017,3652764,75,EC,68,-0.74,-90.35,71.6,18.34
1156,Awbari,11-05-2017,2219235,0,LY,49,26.59,12.78,45.37,2.71
1157,Victoria,11-05-2017,6174041,75,CA,41,48.43,-123.37,40.98,6.93
1158,Cayenne,11-05-2017,3382160,0,GF,94,4.93,-52.33,78.8,3.36
1159,Barrow,11-05-2017,5880054,75,US,92,71.29,-156.79,28.4,6.93
1160,Mathura,11-05-2017,1263364,0,IN,81,27.5,77.68,61.26,2.71
1161,Tasboget,11-05-2017,1518431,75,KZ,65,44.77,65.55,46.4,4.47
1162,La Rioja,11-05-2017,3336897,75,ES,87,42.25,-2.5,48.2,12.75
1163,Necochea,11-05-2017,3430443,92,AR,100,-38.55,-58.74,56.04,6.96
1164,Grande Riviere Sud Est,11-05-2017,934475,40,MU,68,-20.29,57.78,71.6,5.82
1165,Hurricane,11-05-2017,5540831,1,US,32,37.18,-113.29,61.11,10.29
1166,Paka,11-05-2017,1734313,75,MY,88,4.64,103.44,77.0,3.36
1167,Hobart,11-05-2017,2163355,40,AU,46,-42.88,147.33,53.6,12.75
1168,Bambous Virieux,11-05-2017,1106677,40,MU,68,-20.34,57.76,71.6,5.82
1169,Avarua,11-05-2017,4035715,90,CK,83,-21.21,-159.78,77.0,13.87
1170,Ozu,11-05-2017,1926055,20,JP,76,33.5,132.55,50.0,10.29
1171,Província de Zambézia,11-05-2017,1024312,0,MZ,96,-17.0,37.0,64.41,3.15
1172,Grande Riviere Sud Est,11-05-2017,934475,40,MU,68,-20.29,57.78,71.6,5.82
1173,Severo-Kurilsk,11-05-2017,2121385,80,RU,100,50.68,156.12,34.26,17.02
1174,Vilcun,11-05-2017,3868210,92,CL,91,-38.65,-72.23,54.01,6.17
1175,Krasnyy Bor,11-05-2017,541826,75,RU,93,59.68,30.67,41.0,6.71
1176,Busselton,11-05-2017,2075265,0,AU,93,-33.65,115.33,65.71,22.28
1177,Aura,11-05-2017,660874,92,FI,100,60.62,22.58,48.2,8.05
1178,Albany,11-05-2017,5106834,90,US,81,42.65,-73.76,53.26,14.99
1179,Tambura,11-05-2017,366444,32,SS,94,5.6,27.47,67.69,3.15
1180,Bluff,11-05-2017,2206939,36,NZ,100,-46.6,168.33,51.22,22.84
1181,Port Macquarie,11-05-2017,2152659,75,AU,93,-31.43,152.92,66.2,2.24
1182,Arraial do Cabo,11-05-2017,3471451,92,BR,100,-22.97,-42.03,71.61,13.0
1183,Cape Town,11-05-2017,3369157,0,ZA,77,-33.93,18.42,60.8,28.86
1184,Taszar,11-05-2017,3044088,100,HU,100,46.37,17.91,46.59,2.93
1185,Albany,11-05-2017,5106834,90,US,81,42.65,-73.76,53.26,14.99
1186,Ancud,11-05-2017,3899695,92,CL,99,-41.87,-73.82,53.74,2.15
1187,Trelew,11-05-2017,3833883,92,AR,90,-43.25,-65.31,50.46,9.08
1188,Departamento de Presidente Hayes,11-05-2017,3437443,68,PY,90,-23.5,-58.83,74.76,9.53
1189,Grande Riviere Sud Est,11-05-2017,934475,40,MU,68,-20.29,57.78,71.6,5.82
1190,Hofn,11-05-2017,2630299,92,IS,100,64.25,-15.21,40.2,34.58
1191,Guerrero Negro,11-05-2017,4021858,92,MX,65,27.98,-114.06,71.47,10.76
1192,Jamestown,11-05-2017,5122534,90,US,100,42.1,-79.24,56.61,11.41
1193,Shakawe,11-05-2017,933077,0,BW,23,-18.37,21.85,64.5,6.73
1194,Kjopsvik,11-05-2017,3150002,88,NO,80,68.1,16.37,39.2,2.24
1195,Smidovich,11-05-2017,2016412,0,RU,79,48.6,133.82,31.33,8.63
1196,Klaksvik,11-05-2017,2618795,68,FO,80,62.23,-6.59,30.2,16.24
1197,Punta Arenas,11-05-2017,3874787,0,CL,58,-53.15,-70.92,55.4,11.41
1198,Yakeshi,11-05-2017,2033536,64,CN,76,49.28,120.73,13.29,2.93
1199,Khatanga,11-05-2017,2022572,76,RU,62,71.97,102.5,0.69,6.73
1200,Mayskiy,11-05-2017,528242,40,RU,86,47.69,40.1,39.2,8.95
1201,Rikitea,11-05-2017,4030556,44,PF,100,-23.12,-134.97,74.67,12.55
1202,Konik,11-05-2017,545452,88,RU,95,58.56,36.9,37.14,7.74
1203,Thompson,11-05-2017,6165406,90,CA,78,55.74,-97.86,17.6,10.29
1204,Pevek,11-05-2017,2122090,44,RU,75,69.7,170.31,31.69,26.19
1205,Cidreira,11-05-2017,3466165,0,BR,78,-30.18,-50.21,60.31,9.08
1206,Atasu,11-05-2017,1526041,80,KZ,97,48.68,71.64,30.75,5.5
1207,Kiunga,11-05-2017,2093846,64,PG,89,-6.12,141.29,81.64,2.71
1208,Ixtapa,11-05-2017,4004293,20,MX,79,20.7,-105.2,86.0,10.29
1209,Varnek,11-05-2017,1487762,8,RU,81,69.71,60.05,34.35,21.72
1210,Tuatapere,11-05-2017,2180815,32,NZ,100,-46.13,167.68,48.97,16.24
1211,Cherskiy,11-05-2017,2126199,88,RU,76,68.75,161.3,33.72,10.09
1212,Bonthe,11-05-2017,2409914,36,SL,95,7.53,-12.51,78.09,3.49
1213,Ribeira Grande,11-05-2017,3372707,40,PT,82,38.52,-28.7,66.2,6.93
1214,Codrington,11-05-2017,2171099,92,AU,93,-38.27,141.97,55.14,20.04
1215,Torbay,11-05-2017,6167817,20,CA,63,47.67,-52.73,28.4,5.82
1216,Hilo,11-05-2017,5855927,90,US,69,19.73,-155.09,72.68,13.87
1217,Hilo,11-05-2017,5855927,90,US,69,19.73,-155.09,72.68,13.87
1218,Changchun,11-05-2017,2038180,0,CN,72,43.88,125.32,42.8,11.18
1219,Atuona,11-05-2017,4020109,56,PF,100,-9.8,-139.03,80.29,13.0
1220,Jamestown,11-05-2017,5122534,90,US,100,42.1,-79.24,56.61,11.41
1221,Saint-Philippe,11-05-2017,935215,0,RE,49,-21.36,55.77,68.0,8.05
1222,Cape Town,11-05-2017,3369157,0,ZA,77,-33.93,18.42,60.8,28.86
1223,Ponta do Sol,11-05-2017,2264557,75,PT,64,32.67,-17.1,68.0,18.34
1224,Vaini,11-05-2017,4032243,75,TO,69,-21.2,-175.2,80.6,4.7
1225,Cherskiy,11-05-2017,2126199,88,RU,76,68.75,161.3,33.72,10.09
1226,Gannan,11-05-2017,2037311,24,CN,59,47.91,123.5,30.43,4.94
1227,Porto Novo,11-05-2017,3374336,20,CV,73,17.02,-25.06,77.0,19.46
1228,Macapa,11-05-2017,3396016,0,BR,66,0.04,-51.07,86.0,12.75
1229,Bluff,11-05-2017,2206939,36,NZ,100,-46.6,168.33,51.22,22.84
1230,Thompson,11-05-2017,6165406,90,CA,78,55.74,-97.86,17.6,10.29
1231,Upernavik,11-05-2017,3418910,68,GL,100,72.79,-56.15,19.09,28.66
1232,Cidreira,11-05-2017,3466165,0,BR,78,-30.18,-50.21,60.31,9.08
1233,Atuona,11-05-2017,4020109,56,PF,100,-9.8,-139.03,80.29,13.0
1234,Bowen,11-05-2017,2174444,40,AU,74,-20.02,148.23,78.8,5.82
1235,Albany,11-05-2017,5106834,90,US,81,42.65,-73.76,53.26,14.99
1236,Busselton,11-05-2017,2075265,0,AU,93,-33.65,115.33,65.71,22.28
1237,Krasnyy Bor,11-05-2017,541826,75,RU,93,59.68,30.67,41.0,6.71
1238,Castro,11-05-2017,3466704,76,BR,90,-24.79,-50.01,57.34,12.21
1239,Clyde River,11-05-2017,5924351,1,CA,69,70.47,-68.59,-7.61,8.05
1240,Vaini,11-05-2017,4032243,75,TO,69,-21.2,-175.2,80.6,4.7
1241,Butaritari,11-05-2017,2110227,88,KI,100,3.07,172.79,82.59,14.12
1242,Katsuura,11-05-2017,2112309,20,JP,58,35.13,140.3,53.6,5.82
1243,Kashechewan,11-05-2017,5989520,64,CA,77,52.3,-81.62,37.99,10.54
1244,Atuona,11-05-2017,4020109,56,PF,100,-9.8,-139.03,80.29,13.0
1245,Jamestown,11-05-2017,5122534,90,US,100,42.1,-79.24,56.61,11.41
1246,Cape Town,11-05-2017,3369157,0,ZA,77,-33.93,18.42,60.8,28.86
1247,Vaini,11-05-2017,4032243,75,TO,69,-21.2,-175.2,80.6,4.7
1248,Krasnyy Bor,11-05-2017,541826,75,RU,93,59.68,30.67,41.0,6.71
1249,Bluff,11-05-2017,2206939,36,NZ,100,-46.6,168.33,51.22,22.84
1250,Kapaa,11-05-2017,5848280,40,US,65,22.08,-159.32,80.4,16.11
1251,Busselton,11-05-2017,2075265,0,AU,93,-33.65,115.33,65.71,22.28
1252,Petropavlovsk-Kamchatskiy,11-05-2017,2122104,0,RU,67,53.05,158.65,19.4,11.18
1253,Hovd,11-05-2017,1516048,0,MN,76,48.01,91.64,13.11,4.5
1254,New Norfolk,11-05-2017,2155415,40,AU,46,-42.78,147.06,53.6,12.75
1255,Constitucion,11-05-2017,3893726,88,CL,97,-35.33,-72.42,56.71,6.62
1256,Thompson,11-05-2017,6165406,90,CA,78,55.74,-97.86,17.6,10.29
1257,Busselton,11-05-2017,2075265,0,AU,93,-33.65,115.33,65.71,22.28
1258,Qaanaaq,11-05-2017,3831208,8,GL,100,77.48,-69.36,-6.74,8.08
1259,Talnakh,11-05-2017,1490256,80,RU,80,69.49,88.4,22.87,9.42
1260,Puerto Leguizamo,11-05-2017,3671437,80,CO,81,-0.19,-74.78,80.7,0.69
1261,Kodiak,11-05-2017,5866583,90,US,86,57.79,-152.41,39.2,12.75
1262,Khatanga,11-05-2017,2022572,76,RU,62,71.97,102.5,0.69,6.73
1263,Cherskiy,11-05-2017,2126199,88,RU,76,68.75,161.3,33.72,10.09
1264,Sinop,11-05-2017,739598,48,TR,90,41.77,34.87,50.41,3.71
1265,Hermanus,11-05-2017,3366880,80,ZA,93,-34.42,19.23,54.6,4.16
1266,Tocopilla,11-05-2017,3869716,8,CL,98,-22.09,-70.2,56.85,4.16
1267,Hermanus,11-05-2017,3366880,80,ZA,93,-34.42,19.23,54.6,4.16
1268,Hithadhoo,11-05-2017,1282256,76,MV,100,-0.6,73.08,76.74,12.44
1269,Chuy,11-05-2017,3443061,0,UY,82,-33.7,-53.46,59.46,10.98
1270,Kodiak,11-05-2017,5866583,90,US,86,57.79,-152.41,39.2,12.75
1271,West Bay,11-05-2017,3580477,20,KY,83,19.37,-81.42,82.4,11.41
1272,Vaini,11-05-2017,4032243,75,TO,69,-21.2,-175.2,80.6,4.7
1273,Zagare,11-05-2017,592942,0,LT,100,56.36,23.25,39.2,9.17
1274,Ushuaia,11-05-2017,3833367,0,AR,58,-54.8,-68.3,50.56,12.75
1275,Busselton,11-05-2017,2075265,0,AU,93,-33.65,115.33,65.71,22.28
1276,Punta Arenas,11-05-2017,3874787,0,CL,58,-53.15,-70.92,55.4,11.41
1277,Qaanaaq,11-05-2017,3831208,8,GL,100,77.48,-69.36,-6.74,8.08
1278,Tsiombe,11-05-2017,1054500,0,MG,88,-25.3,45.48,63.73,8.97
1279,Punta Arenas,11-05-2017,3874787,0,CL,58,-53.15,-70.92,55.4,11.41
1280,Progreso,11-05-2017,3521108,75,MX,58,21.28,-89.67,82.4,5.82
1281,Santa Rosalia,11-05-2017,3983805,24,MX,100,27.32,-112.28,77.86,14.23
1282,Castro,11-05-2017,3466704,76,BR,90,-24.79,-50.01,57.34,12.21
1283,Mareeba,11-05-2017,2158767,20,AU,58,-17.0,145.43,84.2,12.75
1284,Kamiiso,11-05-2017,2129766,75,JP,76,41.82,140.65,51.8,9.17
1285,Dunedin,11-05-2017,2191562,64,NZ,53,-45.87,170.5,53.38,14.23
1286,Bredasdorp,11-05-2017,1015776,8,ZA,59,-34.53,20.04,64.4,6.93
1287,Vaini,11-05-2017,4032243,75,TO,69,-21.2,-175.2,80.6,4.7
1288,Saint-Philippe,11-05-2017,935215,0,RE,49,-21.36,55.77,68.0,8.05
1289,Punta Arenas,11-05-2017,3874787,0,CL,58,-53.15,-70.92,55.4,11.41
1290,Jamestown,11-05-2017,5122534,90,US,100,42.1,-79.24,56.61,11.41
1291,Butaritari,11-05-2017,2110227,88,KI,100,3.07,172.79,82.59,14.12
1292,Atuona,11-05-2017,4020109,56,PF,100,-9.8,-139.03,80.29,13.0
1293,Paamiut,11-05-2017,3421193,80,GL,100,61.99,-49.67,32.59,33.91
1294,Dalkola,11-05-2017,1273642,0,IN,77,25.85,87.85,66.21,2.71
1295,Castro,11-05-2017,3466704,76,BR,90,-24.79,-50.01,57.34,12.21
1296,Amparihy,11-05-2017,1078317,75,MG,94,-25.02,46.97,68.0,13.87
1297,Bambous Virieux,11-05-2017,1106677,40,MU,68,-20.34,57.76,71.6,5.82
1298,Trairi,11-05-2017,3386177,8,BR,97,-3.28,-39.27,80.79,22.06
1299,Albany,11-05-2017,5106834,90,US,81,42.65,-73.76,53.26,14.99
1300,Atuona,11-05-2017,4020109,56,PF,100,-9.8,-139.03,80.29,13.0
1301,Khatanga,11-05-2017,2022572,76,RU,62,71.97,102.5,0.69,6.73
1302,Busselton,11-05-2017,2075265,0,AU,93,-33.65,115.33,65.71,22.28
1303,Raha Tiga,11-05-2017,6977912,24,ID,86,-4.83,122.72,84.97,5.17
1304,Mathura,11-05-2017,1263364,0,IN,81,27.5,77.68,61.26,2.71
1305,Saint-Philippe,11-05-2017,935215,0,RE,49,-21.36,55.77,68.0,8.05
1306,Luwuk,11-05-2017,1637001,36,ID,93,-0.95,122.79,81.82,4.38
1307,San Patricio,11-05-2017,3985168,20,MX,79,19.22,-104.7,87.8,5.82
1308,Provideniya,11-05-2017,4031574,32,RU,100,64.38,-173.3,36.91,7.96
1309,Oum Hadjer,11-05-2017,2426370,48,TD,81,13.3,19.7,66.57,2.59
1310,Jamestown,11-05-2017,5122534,90,US,100,42.1,-79.24,56.61,11.41
1311,Marrakesh,11-05-2017,2542997,0,MA,55,31.63,-8.01,62.6,9.17
1312,Port Alfred,11-05-2017,964432,44,ZA,98,-33.59,26.89,63.51,16.58
1313,Horta (Angústias),11-05-2017,8013523,40,PT,82,38.53,-28.64,66.2,6.93
1314,Norman Wells,11-05-2017,6089245,75,CA,78,65.28,-126.83,15.8,3.36
1315,Bluff,11-05-2017,2206939,36,NZ,100,-46.6,168.33,51.22,22.84
1316,Hobart,11-05-2017,2163355,40,AU,46,-42.88,147.33,53.6,12.75
1317,Ambon,11-05-2017,1651531,40,ID,88,-3.7,128.18,80.6,2.24
1318,Condega,11-05-2017,3620298,40,NI,73,13.37,-86.4,77.0,6.93
1319,Hualmay,11-05-2017,3939761,36,PE,84,-11.1,-77.61,60.72,4.94
1320,Fortuna,11-05-2017,5563839,90,US,87,40.6,-124.16,51.15,5.82
1321,East London,11-05-2017,1006984,8,ZA,100,-33.02,27.91,66.16,19.6
1322,Mahebourg,11-05-2017,934322,40,MU,68,-20.41,57.7,71.6,5.82
1323,Bambous Virieux,11-05-2017,1106677,40,MU,68,-20.34,57.76,71.6,5.82
1324,Avarua,11-05-2017,4035715,90,CK,83,-21.21,-159.78,77.0,13.87
1325,Rudnik,11-05-2017,1544819,44,RU,71,69.75,61.65,33.36,17.58
1326,Punta Arenas,11-05-2017,3874787,0,CL,58,-53.15,-70.92,55.4,11.41
1327,Bryanskaya Oblast,11-05-2017,571473,88,RU,96,53.0,33.5,39.12,7.4
1328,Povenets,11-05-2017,505820,92,RU,90,62.85,34.83,39.07,10.09
1329,Busselton,11-05-2017,2075265,0,AU,93,-33.65,115.33,65.71,22.28
1330,Souillac,11-05-2017,933995,40,MU,68,-20.52,57.52,71.6,5.82
1331,Punta Arenas,11-05-2017,3874787,0,CL,58,-53.15,-70.92,55.4,11.41
1332,Sitka,11-05-2017,5557293,1,US,55,57.05,-135.33,42.17,4.94
1333,Ushuaia,11-05-2017,3833367,0,AR,58,-54.8,-68.3,50.56,12.75
1334,Denpasar,11-05-2017,1645528,20,ID,94,-8.65,115.22,78.8,1.12
1335,Mathura,11-05-2017,1263364,0,IN,81,27.5,77.68,61.26,2.71
1336,Las Palmas,11-05-2017,3706292,92,PA,93,8.13,-81.45,71.61,1.92
1337,Beyneu,11-05-2017,610298,12,KZ,100,45.32,55.2,29.04,6.06
1338,Ahipara,11-05-2017,2194098,68,NZ,82,-35.17,173.17,61.93,13.67
1339,Amparihy,11-05-2017,1078317,75,MG,94,-25.02,46.97,68.0,13.87
1340,Thompson,11-05-2017,6165406,90,CA,78,55.74,-97.86,17.6,10.29
1341,Bluff,11-05-2017,2206939,36,NZ,100,-46.6,168.33,51.22,22.84
1342,Coahuayana,11-05-2017,4013679,40,MX,83,18.73,-103.68,80.6,11.41
1343,Talnakh,11-05-2017,1490256,80,RU,80,69.49,88.4,22.87,9.42
1344,Puerto Ayora,11-05-2017,3652764,75,EC,68,-0.74,-90.35,71.6,18.34
1345,Chokurdakh,11-05-2017,2126123,68,RU,84,70.63,147.92,20.76,6.17
1346,Geraldton,11-05-2017,2070998,0,AU,19,-28.77,114.6,78.8,20.8
1347,Jamestown,11-05-2017,5122534,90,US,100,42.1,-79.24,56.61,11.41
1348,Amparihy,11-05-2017,1078317,75,MG,94,-25.02,46.97,68.0,13.87
1349,Sitka,11-05-2017,5557293,1,US,55,57.05,-135.33,42.17,4.94
1350,Saskylakh,11-05-2017,2017155,64,RU,37,71.92,114.08,-2.92,5.5
1351,Port Hardy,11-05-2017,6111862,5,CA,41,50.7,-127.42,41.0,5.82
1352,Hobart,11-05-2017,2163355,40,AU,46,-42.88,147.33,53.6,12.75
1353,Amparihy,11-05-2017,1078317,75,MG,94,-25.02,46.97,68.0,13.87
1354,Amparihy,11-05-2017,1078317,75,MG,94,-25.02,46.97,68.0,13.87
1355,Bathsheba,11-05-2017,3374083,40,BB,88,13.22,-59.52,80.6,14.99
1356,Cape Town,11-05-2017,3369157,0,ZA,77,-33.93,18.42,60.8,28.86
1357,Kattivakkam,11-05-2017,1267433,75,IN,100,13.22,80.32,77.0,3.36
1358,Amparihy,11-05-2017,1078317,75,MG,94,-25.02,46.97,68.0,13.87
1359,Rikitea,11-05-2017,4030556,44,PF,100,-23.12,-134.97,74.67,12.55
1360,Krasnyy Bor,11-05-2017,541826,75,RU,93,59.68,30.67,41.0,6.71
1361,Punta Arenas,11-05-2017,3874787,0,CL,58,-53.15,-70.92,55.4,11.41
1362,Ishigaki,11-05-2017,1861416,75,JP,83,24.34,124.16,77.0,18.34
1363,Mu??faz?at Dah?k,11-05-2017,97270,64,IQ,100,37.0,43.25,37.36,2.15
1364,Al Qurayyat,11-05-2017,108648,0,SA,72,31.33,37.34,60.8,11.41
1365,Thompson,11-05-2017,6165406,90,CA,78,55.74,-97.86,17.6,10.29
1366,Busselton,11-05-2017,2075265,0,AU,93,-33.65,115.33,65.71,22.28
1367,Killarney,11-05-2017,5991907,1,CA,61,49.18,-99.66,17.6,10.29
1368,Punta Arenas,11-05-2017,3874787,0,CL,58,-53.15,-70.92,55.4,11.41
1369,Tingyaung,11-05-2017,1290920,0,MM,85,16.38,94.45,79.26,9.98
1370,Rikitea,11-05-2017,4030556,44,PF,100,-23.12,-134.97,74.67,12.55
1371,Busselton,11-05-2017,2075265,0,AU,93,-33.65,115.33,65.71,22.28
1372,Pyt-Yakh,11-05-2017,6696686,88,RU,90,60.75,72.86,28.27,8.75
1373,Qaanaaq,11-05-2017,3831208,8,GL,100,77.48,-69.36,-6.74,8.08
1374,Lovozero,11-05-2017,533933,92,RU,92,68.0,35.01,24.22,2.48
1375,Albany,11-05-2017,5106834,90,US,81,42.65,-73.76,53.26,14.99
1376,Porosozero,11-05-2017,506232,88,RU,100,62.72,32.73,38.44,8.75
1377,Ribeira Grande,11-05-2017,3372707,40,PT,82,38.52,-28.7,66.2,6.93
1378,Vila Franca do Campo,11-05-2017,3372472,20,PT,72,37.72,-25.43,62.6,4.7
1379,Amparihy,11-05-2017,1078317,75,MG,94,-25.02,46.97,68.0,13.87
1380,Rikitea,11-05-2017,4030556,44,PF,100,-23.12,-134.97,74.67,12.55
1381,Berlevag,11-05-2017,780687,0,NO,86,70.86,29.09,29.19,6.93
1382,Chokurdakh,11-05-2017,2126123,68,RU,84,70.63,147.92,20.76,6.17
1383,Ixtapa,11-05-2017,4004293,20,MX,79,20.7,-105.2,86.0,10.29
1384,Horsham,11-05-2017,2646557,0,GB,86,51.06,-0.33,39.49,4.7
1385,Iqaluit,11-05-2017,5983720,20,CA,77,63.75,-68.51,3.2,5.82
1386,Avarua,11-05-2017,4035715,90,CK,83,-21.21,-159.78,77.0,13.87
1387,Zhigansk,11-05-2017,2012530,0,RU,46,66.77,123.37,-28.66,5.17
1388,Saint-Leu,11-05-2017,6690297,0,RE,49,-21.15,55.28,68.0,8.05
1389,Ponta do Sol,11-05-2017,2264557,75,PT,64,32.67,-17.1,68.0,18.34
1390,Umm Lajj,11-05-2017,100926,0,SA,100,25.02,37.27,67.29,8.63
1391,Rikitea,11-05-2017,4030556,44,PF,100,-23.12,-134.97,74.67,12.55
1392,Cape Town,11-05-2017,3369157,0,ZA,77,-33.93,18.42,60.8,28.86
1393,Stonehaven,11-05-2017,2636814,0,GB,74,56.96,-2.21,35.6,11.41
1394,Port Elizabeth,11-05-2017,964420,0,ZA,82,-33.92,25.57,62.6,11.41
1395,Nagorsk,11-05-2017,523583,92,RU,77,59.32,50.81,34.39,10.2
1396,Mathura,11-05-2017,1263364,0,IN,81,27.5,77.68,61.26,2.71
1397,Dunedin,11-05-2017,2191562,64,NZ,53,-45.87,170.5,53.38,14.23
1398,Belmonte,11-05-2017,3470137,40,BR,88,-15.86,-38.88,77.0,8.05
1399,Victoria,11-05-2017,6174041,75,CA,41,48.43,-123.37,40.98,6.93
1400,Simplicio Mendes,11-05-2017,3387620,20,BR,28,-7.85,-41.91,87.36,9.19
1401,Varnek,11-05-2017,1487762,8,RU,81,69.71,60.05,34.35,21.72
1402,Tsiombe,11-05-2017,1054500,0,MG,88,-25.3,45.48,63.73,8.97
1403,Buraydah,11-05-2017,107304,0,SA,35,26.33,43.98,73.4,10.29
1404,Ribeira Grande,11-05-2017,3372707,40,PT,82,38.52,-28.7,66.2,6.93
1405,Punta Arenas,11-05-2017,3874787,0,CL,58,-53.15,-70.92,55.4,11.41
1406,Busselton,11-05-2017,2075265,0,AU,93,-33.65,115.33,65.71,22.28
1407,Barrow,11-05-2017,5880054,75,US,92,71.29,-156.79,28.4,6.93
1408,Kapaa,11-05-2017,5848280,40,US,65,22.08,-159.32,80.4,16.11
1409,Perth,11-05-2017,2063523,0,AU,51,-31.93,115.83,65.01,17.22
1410,Rikitea,11-05-2017,4030556,44,PF,100,-23.12,-134.97,74.67,12.55
1411,Tura,11-05-2017,1254046,0,IN,88,25.52,90.22,61.39,6.06
1412,Jamestown,11-05-2017,5122534,90,US,100,42.1,-79.24,56.61,11.41
1413,Duluth,11-05-2017,5024719,90,US,63,46.78,-92.11,29.61,12.75
1414,Alofi,11-05-2017,4036284,48,NU,69,-19.06,-169.92,80.6,14.99
1415,Amparihy,11-05-2017,1078317,75,MG,94,-25.02,46.97,68.0,13.87
1416,Zigong,11-05-2017,1783745,0,CN,78,29.34,104.78,53.47,4.05
1417,Ilulissat,11-05-2017,3423146,8,GL,78,69.22,-51.1,17.6,5.82
1418,Hentiesbaai,11-05-2017,3356832,36,NA,96,-22.12,14.28,62.16,4.72
1419,Tasiilaq,11-05-2017,3424607,20,GL,100,65.61,-37.64,33.76,65.79
1420,Cabo San Lucas,11-05-2017,3985710,20,MX,45,22.89,-109.91,86.0,12.75
1421,Tibati,11-05-2017,2221530,64,CM,73,6.47,12.63,70.84,4.05
1422,Tiksi,11-05-2017,2015306,44,RU,74,71.69,128.87,-24.97,3.38
1423,Alta Floresta,11-05-2017,6316343,12,BR,84,-9.88,-56.09,79.44,2.71
1424,Punta Arenas,11-05-2017,3874787,0,CL,58,-53.15,-70.92,55.4,11.41
1425,Leningradskiy,11-05-2017,2123814,48,RU,97,69.38,178.42,28.18,21.61
1426,Georgetown,11-05-2017,3378644,20,GY,83,6.8,-58.16,80.6,9.17
1427,Pacific Grove,11-05-2017,5380437,1,US,38,36.62,-121.92,59.72,8.05
1428,Jamestown,11-05-2017,5122534,90,US,100,42.1,-79.24,56.61,11.41
1429,Bam,11-05-2017,141736,0,IR,57,29.11,58.36,47.71,4.61
1430,Vaini,11-05-2017,4032243,75,TO,69,-21.2,-175.2,80.6,4.7
1431,Arraial do Cabo,11-05-2017,3471451,92,BR,100,-22.97,-42.03,71.61,13.0
1432,Tuktoyaktuk,11-05-2017,6170031,90,CA,85,69.45,-133.04,14.0,10.29
1433,Yellowknife,11-05-2017,6185377,75,CA,61,62.46,-114.35,12.2,8.05
1434,Horta (Angústias),11-05-2017,8013523,40,PT,82,38.53,-28.64,66.2,6.93
1435,Punta Arenas,11-05-2017,3874787,0,CL,58,-53.15,-70.92,55.4,11.41
1436,Sur,11-05-2017,286245,0,OM,100,22.57,59.53,74.89,1.59
1437,Barrow,11-05-2017,5880054,75,US,92,71.29,-156.79,28.4,6.93
1438,Grand Gaube,11-05-2017,934479,40,MU,68,-20.01,57.66,71.6,5.82
1439,Hamilton,11-05-2017,5969785,90,CA,100,43.23,-79.95,59.02,18.34
1440,Ordubad,11-05-2017,147368,75,AZ,81,38.91,46.02,44.6,2.24
1441,Bow Island,11-05-2017,5906757,90,CA,84,49.87,-111.37,8.6,5.82
1442,Barrow,11-05-2017,5880054,75,US,92,71.29,-156.79,28.4,6.93
1443,Carnarvon,11-05-2017,2074865,0,AU,88,-24.87,113.63,74.22,11.77
1444,El Trompillo,11-05-2017,7020913,75,BO,78,-17.8,-63.17,73.4,6.93
1445,Busselton,11-05-2017,2075265,0,AU,93,-33.65,115.33,65.71,22.28
1446,Paradip Garh,11-05-2017,1260393,0,IN,99,20.32,86.62,65.26,2.93
1447,New Norfolk,11-05-2017,2155415,40,AU,46,-42.78,147.06,53.6,12.75
1448,Starobesheve,11-05-2017,692829,92,UA,100,47.75,38.03,37.09,7.18
1449,Avarua,11-05-2017,4035715,90,CK,83,-21.21,-159.78,77.0,13.87
1450,Galle,11-05-2017,1246294,88,LK,100,6.04,80.22,76.24,7.96
1451,Griffith,11-05-2017,4920986,90,US,87,41.53,-87.42,51.26,11.41
1452,Albany,11-05-2017,5106834,90,US,81,42.65,-73.76,53.26,14.99
1453,Vaini,11-05-2017,4032243,75,TO,69,-21.2,-175.2,80.6,4.7
1454,Kirovsk,11-05-2017,705809,88,UA,100,48.64,38.64,36.15,7.07
1455,Vestmannaeyjar,11-05-2017,3412093,0,IS,83,63.44,-20.27,45.73,10.98
1456,Yellowknife,11-05-2017,6185377,75,CA,61,62.46,-114.35,12.2,8.05
1457,Kenora,11-05-2017,5991056,90,CA,85,49.82,-94.43,23.45,9.17
1458,Lagoa,11-05-2017,3372964,76,PT,100,39.05,-27.98,67.47,17.13
1459,Brejo Santo,11-05-2017,3404833,20,BR,42,-7.49,-38.99,76.96,9.42
1460,Cururupu,11-05-2017,3401148,32,BR,83,-1.83,-44.87,79.44,9.64
1461,Kruisfontein,11-05-2017,986717,100,ZA,99,-34.0,24.73,61.17,20.04
1462,Esperance,11-05-2017,2071860,12,AU,64,-33.87,121.9,61.62,11.1
1463,Amparihy,11-05-2017,1078317,75,MG,94,-25.02,46.97,68.0,13.87
1464,New Norfolk,11-05-2017,2155415,40,AU,46,-42.78,147.06,53.6,12.75
1465,Batsfjord,11-05-2017,780717,75,NO,100,70.63,29.72,29.61,8.05
1466,Punta Arenas,11-05-2017,3874787,0,CL,58,-53.15,-70.92,55.4,11.41
1467,Punta Arenas,11-05-2017,3874787,0,CL,58,-53.15,-70.92,55.4,11.41
1468,Port Macquarie,11-05-2017,2152659,75,AU,93,-31.43,152.92,66.2,2.24
1469,Joshimath,11-05-2017,1268814,0,IN,66,30.57,79.57,11.04,1.36
1470,Taoudenni,11-05-2017,2450173,8,ML,29,22.68,-3.98,63.06,4.72
1471,Atuona,11-05-2017,4020109,56,PF,100,-9.8,-139.03,80.29,13.0
1472,Rudnik,11-05-2017,1544819,44,RU,71,69.75,61.65,33.36,17.58
1473,Esperance,11-05-2017,2071860,12,AU,64,-33.87,121.9,61.62,11.1
1474,Severo-Kurilsk,11-05-2017,2121385,80,RU,100,50.68,156.12,34.26,17.02
1475,Hobart,11-05-2017,2163355,40,AU,46,-42.88,147.33,53.6,12.75
1476,Isafjoerdur,11-05-2017,3415667,92,IS,100,66.08,-23.12,36.37,15.57
1477,Jamestown,11-05-2017,5122534,90,US,100,42.1,-79.24,56.61,11.41
1478,Longyearbyen,11-05-2017,2729907,75,SJ,74,78.22,15.64,28.4,8.05
1479,Chokurdakh,11-05-2017,2126123,68,RU,84,70.63,147.92,20.76,6.17
1480,Port Elizabeth,11-05-2017,964420,0,ZA,82,-33.92,25.57,62.6,11.41
1481,Chibuto,11-05-2017,1049861,0,MZ,90,-24.69,33.53,64.5,8.41
1482,Gobabis,11-05-2017,3357247,32,NA,50,-22.45,18.97,62.34,4.05
1483,Kapaa,11-05-2017,5848280,40,US,65,22.08,-159.32,80.4,16.11
1484,Scarness,11-05-2017,2150126,44,AU,93,-25.28,152.85,74.94,9.75
1485,Puerto Ayora,11-05-2017,3652764,75,EC,68,-0.74,-90.35,71.6,18.34
1486,Monmouth,11-05-2017,5741227,75,US,50,44.85,-123.23,50.9,9.17
1487,Camargo,11-05-2017,3126917,92,ES,76,43.41,-3.88,55.4,6.93
1488,Cidreira,11-05-2017,3466165,0,BR,78,-30.18,-50.21,60.31,9.08
1489,Hamilton,11-05-2017,5969785,90,CA,100,43.23,-79.95,59.02,18.34
1490,Rikitea,11-05-2017,4030556,44,PF,100,-23.12,-134.97,74.67,12.55
1491,Vaini,11-05-2017,4032243,75,TO,69,-21.2,-175.2,80.6,4.7
1492,Ushuaia,11-05-2017,3833367,0,AR,58,-54.8,-68.3,50.56,12.75
1493,Jamestown,11-05-2017,5122534,90,US,100,42.1,-79.24,56.61,11.41
1494,Hilo,11-05-2017,5855927,90,US,69,19.73,-155.09,72.68,13.87
1495,Amalapuram,11-05-2017,1278935,68,IN,85,16.58,82.02,78.04,17.81
1496,Bluff,11-05-2017,2206939,36,NZ,100,-46.6,168.33,51.22,22.84
1497,Puyang,11-05-2017,1798425,12,CN,85,29.46,119.89,54.64,2.59
1498,Cabo San Lucas,11-05-2017,3985710,20,MX,45,22.89,-109.91,86.0,12.75
1499,Kapaa,11-05-2017,5848280,40,US,65,22.08,-159.32,80.4,16.11
